system_cod,location_c,location_n,BEDS,Managed_by,location_t,Location_1,Grades_tex,Grades_fin,open_date,Status_des,Primary_bu,primary_ad,X_COORDINA,Y_COORDINA,LONGITUDE,LATITUDE,Community_,Council-di,Census_tra,Borough_bl,NTA,NTA_Name,Geographic,Administra,Administ_1,communit_1,LOC_CODE
15K001,K001,P.S. 001 The Bergen,331500010001,DOE,General Academic,Elementary,"PK,0K,01,02,03,04,05,SE","PK,0K,01,02,03,04,05",1965/07/01 00:00:00.000,Open,K001,309 47 STREET,"981081","175710",-74.011420000000001,40.648958999999998,"307","38","8000","3007550022",BK32,Sunset Park West,"15","15",COMMUNITY SCHOOL DISTRICT 15,"SKOP, ANITA",K001
17K002,K002,Parkside Preparatory Academy,331700010002,DOE,General Academic,Junior High-Intermediate-Middle,"06,07,08,SE","06,07,08",1994/07/01 00:00:00.000,Open,K002,655 PARKSIDE AVENUE,"997686","178433",-73.951575000000005,40.656422999999997,"309","40","80200","3050500051",BK60,Prospect Lefferts Gardens-Wingate,"17","17",COMMUNITY SCHOOL DISTRICT 17,"ELLIS, CLARENCE",K002
13K003,K003,P.S. 003 The Bedford Village,331300010003,DOE,General Academic,Elementary,"PK,0K,01,02,03,04,05,SE","PK,0K,01,02,03,04,05",1950/07/01 00:00:00.000,Open,K003,50 JEFFERSON AVENUE,"996670","187864",-73.955219000000000,40.682310999999999,"303","36","22700","3019980001",BK69,Clinton Hill,"13","13",COMMUNITY SCHOOL DISTRICT 13,"SAMUELS, KAMAR",K003
75K004,K004,P.S. K004,307500013004,DOE,Special Education,Elementary,"PK,0K,01,02,03,04,05,SE","PK,0K,01,02,03,04,05,06,07,SE",1999/07/01 00:00:00.000,Open,K273,923 JEROME STREET,"1017745","179209",-73.879276000000004,40.658499999999997,"305","42","107800","3044010001",BK82,East New York,"19","75",CITYWIDE SPECIAL EDUCATION,"LOUISSAINT, KETLER",K004
16K005,K005,P.S. 005 Dr. Ronald McNair,331600010005,DOE,General Academic,Elementary,"PK,0K,01,02,03,04,05,SE","PK,0K,01,02,03,04,05",1966/07/01 00:00:00.000,Open,K005,820 HANCOCK STREET,"1005891","188938",-73.921970000000002,40.685240999999998,"303","41","37700","3014900001",BK35,Stuyvesant Heights,"16","16",COMMUNITY SCHOOL DISTRICT 16,"MARTIN, YOLANDA",K005
17K006,K006,Norma Adams Clemons Academy,331700010006,DOE,General Academic,Elementary,"PK,0K,01,02,03,04,05,06,SE","0K,01,02,03,04,05",1993/07/01 00:00:00.000,Open,K006,43 SNYDER AVENUE,"996382","175718",-73.956278999999995,40.648972999999998,"314","40","79400","3051030079",BK95,Erasmus,"17","17",COMMUNITY SCHOOL DISTRICT 17,"ELLIS, CLARENCE",K006
19K007,K007,P.S. 007 Abraham Lincoln,331900010007,DOE,General Academic,Elementary,"PK,0K,01,02,03,04,05,SE","PK,0K,01,02,03,04,05",1999/07/01 00:00:00.000,Open,K007,858 JAMAICA AVENUE,"1019475","190401",-73.872983000000005,40.689213000000002,"305","37","118201","3041060039",BK83,Cypress Hills-City Line,"19","19",COMMUNITY SCHOOL DISTRICT 19,THOMAS MCBRYDE JR,K007
13K008,K008,P.S. 008 Robert Fulton,331300010008,DOE,General Academic,K-8,"0K,01,02,03,04,05,08,SE","PK,0K,01,02,03,04,05",1907/07/01 00:00:00.000,Open,K008,37 HICKS STREET,"986235","194564",-73.992840999999999,40.700709000000003,"302","33","100","3002110001",BK09,Brooklyn Heights-Cobble Hill,"13","13",COMMUNITY SCHOOL DISTRICT 13,"SAMUELS, KAMAR",K008
13K009,K009,P.S. 009 Teunis G. Bergen,331300010009,DOE,General Academic,Elementary,"PK,0K,01,02,03,04,05,SE","PK,0K,01,02,03,04,05",1957/07/01 00:00:00.000,Open,K009,80 UNDERHILL AVENUE,"993588","186494",-73.966333000000006,40.678553999999998,"308","35","20500","3011450026",BK64,Prospect Heights,"13","13",COMMUNITY SCHOOL DISTRICT 13,"SAMUELS, KAMAR",K009
15K010,K010,"Magnet School of Math, Science and Design Technolo",331500010010,DOE,General Academic,Elementary,"0K,01,02,03,04,05,06,SE","PK,0K,01,02,03,04,05",1930/07/01 00:00:00.000,Open,K010,511 7 AVENUE,"988149","180065",-73.985945999999998,40.660912000000003,"307","38","14900","3008690001",BK37,Park Slope-Gowanus,"15","15",COMMUNITY SCHOOL DISTRICT 15,"SKOP, ANITA",K010
13K011,K011,P.S. 011 Purvis J. Behan,331300010011,DOE,General Academic,Elementary,"PK,0K,01,02,03,04,05,SE","PK,0K,01,02,03,04,05",1958/07/01 00:00:00.000,Open,K011,419 WAVERLY AVENUE,"993710","189169",-73.965890000000002,40.685896000000000,"302","35","19900","3019620010",BK69,Clinton Hill,"13","13",COMMUNITY SCHOOL DISTRICT 13,"SAMUELS, KAMAR",K011
17K012,K012,Dr. Jacqueline Peek-Davis School,331700010012,DOE,General Academic,Elementary,"PK,0K,01,02,03,04,05,SE","PK,0K,01,02,03,04,05",1993/07/01 00:00:00.000,Open,K012,430 HOWARD AVENUE,"1006415","184524",-73.920095000000003,40.673124000000001,"316","41","36300","3014570032",BK79,Ocean Hill,"23","17",COMMUNITY SCHOOL DISTRICT 17,"ELLIS, CLARENCE",K012
19K013,K013,P.S. 013 Roberto Clemente,331900010013,DOE,General Academic,Elementary,"PK,0K,01,02,03,04,05,SE","PK,0K,01,02,03,04,05",1975/07/01 00:00:00.000,Open,K013,557 PENNSYLVANIA AVENUE,"1013844","181232",-73.893327999999997,40.664067000000003,"305","42","112600","3038230001",BK85,East New York (Pennsylvania Ave),"19","19",COMMUNITY SCHOOL DISTRICT 19,THOMAS MCBRYDE JR,K013
22K014,K014,J.H.S. 014 Shell Bank,332200010014,DOE,General Academic,Junior High-Intermediate-Middle,"06,07,08,SE","06,07,08",1952/07/01 00:00:00.000,Open,K014,2424 BATCHELDER STREET,"1001439","155413",-73.938107000000002,40.593232000000000,"315","48","59600","3074240001",BK17,Sheepshead Bay-Gerritsen Beach-Manhattan Beach,"22","22",COMMUNITY SCHOOL DISTRICT 22,"BOVE, JULIA",K014
20K314,K314,PS 314 Luis Munoz Marin,332000010314,DOE,General Academic,Elementary,SE,"PK,0K,01,02,03,04,05",1992/02/14 00:00:00.000,Closed,K314,330 59 STREET,"978978","173219",-74.019000000000005,40.642200000000003,"307","38","7400","3008620012",BK32,Sunset Park West,"20","20",COMMUNITY SCHOOL DISTRICT 20,Karina Costantino,K314
15K015,K015,P.S. 015 Patrick F. Daly,331500010015,DOE,General Academic,Elementary,"PK,0K,01,02,03,04,05,SE","PK,0K,01,02,03,04,05",1968/07/01 00:00:00.000,Open,K015,71 SULLIVAN STREET,"980959","185957",-74.011864000000003,40.677084999999998,"306","38","5300","3005660001",BK33,Carroll Gardens-Columbia Street-Red Hook,"15","15",COMMUNITY SCHOOL DISTRICT 15,"SKOP, ANITA",K015
14K016,K016,P.S. 016 Leonard Dunkly,331400010016,DOE,General Academic,Elementary,"PK,0K,01,02,03,04,05,SE","PK,0K,01,02,03,04,05",1918/07/01 00:00:00.000,Open,K016,157 WILSON STREET,"994772","196519",-73.962048999999993,40.706068999999999,"301","33","53500","3021770001",BK72,Williamsburg,"14","14",COMMUNITY SCHOOL DISTRICT 14,"WINNICKI, ALICJA",K016
14K017,K017,P.S. 017 Henry D. Woodworth,331400010017,DOE,General Academic,Elementary,"PK,0K,01,02,03,04,05,SE","PK,0K,01,02,03,04,05",1921/07/01 00:00:00.000,Open,K017,208 NORTH  5 STREET,"996087","199871",-73.957300000000004,40.715268000000002,"301","34","51900","3023450001",BK73,North Side-South Side,"14","14",COMMUNITY SCHOOL DISTRICT 14,"WINNICKI, ALICJA",K017
14K018,K018,P.S. 018 Edward Bush,331400010018,DOE,General Academic,Elementary,"PK,0K,01,02,03,04,05,SE","PK,0K,01,02,03,04,05",1916/07/01 00:00:00.000,Open,K018,101 MAUJER STREET,"999028","198274",-73.946695000000005,40.710880000000003,"301","34","50300","3027870001",BK90,East Williamsburg,"14","14",COMMUNITY SCHOOL DISTRICT 14,"WINNICKI, ALICJA",K018
14K019,K019,P.S. 019 Roberto Clemente,331400010019,DOE,General Academic,Elementary,"05,SE","0K,01,02,03,04,05",1911/07/01 00:00:00.000,Closed,K019,325 SOUTH  3 STREET,"996815","197991",-73.954678000000001,40.710107000000001,"301","34","52700","3024230001",BK73,North Side-South Side,"14","14",COMMUNITY SCHOOL DISTRICT 14,"WINNICKI, ALICJA",K019
13K020,K020,P.S. 020 Clinton Hill,331300010020,DOE,General Academic,Elementary,"PK,0K,01,02,03,04,05,SE","PK,0K,01,02,03,04,05",1951/07/01 00:00:00.000,Open,K020,225 ADELPHI STREET,"992321","190934",-73.970895999999996,40.690742000000000,"302","35","18300","3020910003",BK68,Fort Greene,"13","13",COMMUNITY SCHOOL DISTRICT 13,"SAMUELS, KAMAR",K020
16K021,K021,P.S. 021 Crispus Attucks,331600010021,DOE,General Academic,Elementary,"PK,0K,01,02,03,04,05,SE","PK,0K,01,02,03,04,05",1956/07/01 00:00:00.000,Open,K021,180 CHAUNCEY STREET,"1004588","187155",-73.926672999999994,40.680349999999997,"303","36","38100","3016920017",BK61,Crown Heights North,"16","16",COMMUNITY SCHOOL DISTRICT 16,"MARTIN, YOLANDA",K021
17K022,K022,P.S. 022,331700010022,DOE,General Academic,Elementary,"05,SE","0K,01,02,03,04,05",1996/07/01 00:00:00.000,Closed,K022,443 ST MARKS AVENUE,"995319","185965",-73.960093000000001,40.677100000000003,"308","35","30500","3011480050",BK61,Crown Heights North,"17","17",COMMUNITY SCHOOL DISTRICT 17,"SIMMONS, BUFFIE",K022
14K023,K023,P.S. 023 Carter G. Woodson,331400010023,DOE,General Academic,Elementary,"PK,0K,01,02,03,04,05,SE","PK,0K,01,02,03,04,05",1966/07/01 00:00:00.000,Open,K023,545 WILLOUGHBY AVENUE,"998876","192295",-73.947255999999996,40.694470000000003,"303","36","25901","3017590013",BK75,Bedford,"14","14",COMMUNITY SCHOOL DISTRICT 14,"WINNICKI, ALICJA",K023
15K024,K024,P.S. 024,331500010024,DOE,General Academic,Elementary,"PK,0K,01,02,03,04,05,SE","PK,0K,01,02,03,04,05",1997/07/01 00:00:00.000,Open,K024,427 38 STREET,"982992","177121",-74.004532999999995,40.652831999999997,"307","38","8400","3007010001",BK32,Sunset Park West,"15","15",COMMUNITY SCHOOL DISTRICT 15,"SKOP, ANITA",K024
16K025,K025,P.S. 025 Eubie Blake School,331600010025,DOE,General Academic,Elementary,"PK,0K,01,02,03,04,05,SE","PK,0K,01,02,03,04,05",1942/07/01 00:00:00.000,Open,K025,787 LAFAYETTE AVENUE,"1000681","191204",-73.940748999999997,40.691471999999997,"303","36","28100","3017870014",BK35,Stuyvesant Heights,"16","16",COMMUNITY SCHOOL DISTRICT 16,"MARTIN, YOLANDA",K025
16K026,K026,P.S. 026 Jesse Owens,331600010026,DOE,General Academic,Elementary,"PK,0K,01,02,03,04,05,SE","PK,0K,01,02,03,04,05",1956/07/01 00:00:00.000,Open,K026,1014 LAFAYETTE AVENUE,"1003152","191221",-73.931700000000006,40.692100000000003,"303","36","29100","3016160001",BK35,Stuyvesant Heights,"16","16",COMMUNITY SCHOOL DISTRICT 16,"MARTIN, YOLANDA",K026
16K026,K026,P.S. 026 Jesse Owens,331600010026,DOE,General Academic,Elementary,"PK,0K,01,02,03,04,05,SE","PK,0K,01,02,03,04,05",1956/07/01 00:00:00.000,Open,K026,1014 LAFAYETTE AVENUE,"1003152","191221",-73.931700000000006,40.692100000000003,"303","36","29100","3016160001",BK35,Stuyvesant Heights,"16","16",COMMUNITY SCHOOL DISTRICT 16,"MARTIN, YOLANDA",K026
15K027,K027,Agnes Y. Humphrey School for Leadership,331500010027,DOE,General Academic,K-12 all grades,"05,08,09,SE","PK,0K,01,02,03,04,05,06,07,08",1890/07/01 00:00:00.000,Closed,K027,27 HUNTINGTON STREET,"982821","186259",-74.005150999999998,40.677914000000001,"306","38","5900","3005250001",BK33,Carroll Gardens-Columbia Street-Red Hook,"15","15",COMMUNITY SCHOOL DISTRICT 15,"SKOP, ANITA",K027
16K028,K028,P.S. 028 The Warren Prep Academy,331600010028,DOE,General Academic,Elementary,"PK,0K,01,02,03,04,05,SE","PK,0K,01,02,03,04,05",1913/07/01 00:00:00.000,Open,K040,265 RALPH AVENUE,"1006134","187116",-73.921098999999998,40.680239000000000,"303","41","37900","3015180001",BK35,Stuyvesant Heights,"16","16",COMMUNITY SCHOOL DISTRICT 16,"MARTIN, YOLANDA",K028
15K029,K029,P.S. 029 John M. Harrigan,331500010029,DOE,General Academic,Elementary,"PK,0K,01,02,03,04,05,06,SE","PK,0K,01,02,03,04,05",1921/07/01 00:00:00.000,Open,K029,425 HENRY STREET,"984958","189512",-73.997446999999994,40.686843000000003,"306","39","4500","3003110001",BK33,Carroll Gardens-Columbia Street-Red Hook,"15","15",COMMUNITY SCHOOL DISTRICT 15,"SKOP, ANITA",K029
20K030,K030,P.S./I.S. 30 Mary White Ovington,332000010030,DOE,General Academic,K-8,"0K,01,02,03,04,05,06,07,08,SE","0K,01,02,03,04,05,06,07,08",1997/09/11 00:00:00.000,Open,K331,7002 4TH AVENUE,"977441","170105",-74.023949999999999,40.633597999999999,"310","43","6800","3058910048",BK31,Bay Ridge,"20","20",COMMUNITY SCHOOL DISTRICT 20,"COSTANTINO, KARINA",K030
14K031,K031,P.S. 031 Samuel F. Dupont,331400010031,DOE,General Academic,Elementary,"PK,0K,01,02,03,04,05,SE","PK,0K,01,02,03,04,05",1900/07/01 00:00:00.000,Open,K031,75 MESEROLE AVENUE,"996961","204135",-73.954138999999998,40.726970000000001,"301","33","56100","3025950001",BK76,Greenpoint,"14","14",COMMUNITY SCHOOL DISTRICT 14,"WINNICKI, ALICJA",K031
15K032,K032,P.S. 032 Samuel Mills Sprole,331500010032,DOE,General Academic,Elementary,"PK,0K,01,02,03,04,05,06,SE","PK,0K,01,02,03,04,05",1951/07/01 00:00:00.000,Open,K032,317 HOYT STREET,"986707","187077",-73.991140999999999,40.680159000000003,"306","39","7500","3004370001",BK33,Carroll Gardens-Columbia Street-Red Hook,"15","15",COMMUNITY SCHOOL DISTRICT 15,"SKOP, ANITA",K032
14K033,K033,JHS 033 Mark Hopkins,331400010033,DOE,General Academic,Junior High-Intermediate-Middle,"8","06,07,08",1957/07/01 00:00:00.000,Closed,K033,70 TOMPKINS AVENUE,"999050","193242",-73.946600000000004,40.697099999999999,"303","36","25700","3017430018",BK75,Bedford,"14","14",COMMUNITY SCHOOL DISTRICT 14,James Quail,K033
14K034,K034,P.S. 034 Oliver H. Perry,331400010034,DOE,General Academic,Elementary,"PK,0K,01,02,03,04,05,SE","PK,0K,01,02,03,04,05",1867/07/01 00:00:00.000,Open,K034,131 NORMAN AVENUE,"998176","203920",-73.949755999999994,40.726377999999997,"301","33","57300","3026220028",BK76,Greenpoint,"14","14",COMMUNITY SCHOOL DISTRICT 14,"WINNICKI, ALICJA",K034
16K035,K035,M.S. 035 Stephen Decatur,331600010035,DOE,General Academic,Junior High-Intermediate-Middle,"06,07,08,SE","06,07,08",1926/07/01 00:00:00.000,Open,K035,272 MACDONOUGH STREET,"1002031","187582",-73.935890999999998,40.681528000000000,"303","36","27300","3016740011",BK35,Stuyvesant Heights,"16","16",COMMUNITY SCHOOL DISTRICT 16,"MARTIN, YOLANDA",K035
75K036,K036,P.S. 36,307500013036,DOE,Special Education,K-12 all grades,"PK,0K,01,02,03,04,05,06,07,08,09,10,11,12,SE","01,02,03,04,05,06,07,08,09,10,11,12,SE",1989/06/26 00:00:00.000,Open,K857,2045 LINDEN BOULEVARD,"1015547","179922",-73.887195000000006,40.660465000000002,"305","42","110400","3043270024",BK82,East New York,"19","75",CITYWIDE SPECIAL EDUCATION,"LOUISSAINT, KETLER",K036
84K037,K037,Beginning with Children Charter School II,331400861021,Charter,General Academic,K-8,"0K,01,02,03,04,05,06,07,08","0K,01,02,03,04,05,06,07,08",2012/07/01 00:00:00.000,Open,K071,215 HEYWARD STREET,"997197","195765",-73.953304000000003,40.703995999999997,"301","33","52900","3022270001",BK72,Williamsburg,"14","84",OFFICE OF CHARTER SCHOOLS,NULL,K037
15K038,K038,P.S. 038 The Pacific,331500010038,DOE,General Academic,Elementary,"PK,0K,01,02,03,04,05,06,SE","PK,0K,01,02,03,04,05",1965/07/01 00:00:00.000,Open,K038,450 PACIFIC STREET,"989013","188821",-73.982826000000003,40.684944999999999,"302","33","3900","3001910001",BK38,DUMBO-Vinegar Hill-Downtown Brooklyn-Boerum Hill,"15","15",COMMUNITY SCHOOL DISTRICT 15,"SKOP, ANITA",K038
15K039,K039,P.S. 039 Henry Bristow,331500010039,DOE,General Academic,Elementary,"0K,01,02,03,04,05,SE","PK,0K,01,02,03,04,05",1877/07/01 00:00:00.000,Open,K039,417 6 AVENUE,"988991","182882",-73.982909000000006,40.668644000000000,"306","39","15300","3010000001",BK37,Park Slope-Gowanus,"15","15",COMMUNITY SCHOOL DISTRICT 15,"SKOP, ANITA",K039
16K040,K040,P.S. 040 George W. Carver,331600010040,DOE,General Academic,Elementary,"PK,0K,01,02,03,04,05,SE","PK,0K,01,02,03,04,05",1965/07/01 00:00:00.000,Open,K040,265 RALPH AVENUE,"1006134","187116",-73.921098999999998,40.680239000000000,"303","41","37900","3015180001",BK35,Stuyvesant Heights,"16","16",COMMUNITY SCHOOL DISTRICT 16,"MARTIN, YOLANDA",K040
23K041,K041,P.S. 041 Francis White,332300010041,DOE,General Academic,K-8,"0K,01,02,03,04,05,06,07,08,SE","0K,01,02,03,04,05,06,07,08",1965/07/01 00:00:00.000,Open,K041,411 THATFORD AVENUE,"1010073","179912",-73.906925000000001,40.660454999999999,"316","42","91800","3036040001",BK81,Brownsville,"23","23",COMMUNITY SCHOOL DISTRICT 23,"PATE, MIATHERESA",K041
23K041,K041,P.S. 041 Francis White,332300010041,DOE,General Academic,K-8,"0K,01,02,03,04,05,06,07,08,SE","0K,01,02,03,04,05,06,07,08",1965/07/01 00:00:00.000,Open,K041,411 THATFORD AVENUE,"1010073","179912",-73.906925000000001,40.660454999999999,"316","42","91800","3036040001",BK81,Brownsville,"23","23",COMMUNITY SCHOOL DISTRICT 23,"PATE, MIATHERESA",K041
13K044,K044,P.S. 044 Marcus Garvey,331300010044,DOE,General Academic,Elementary,"PK,0K,01,02,03,04,05,SE","PK,0K,01,02,03,04,05",1951/07/01 00:00:00.000,Open,K044,432 MONROE STREET,"1000652","189288",-73.940859000000003,40.686213000000002,"303","36","27700","3018210001",BK35,Stuyvesant Heights,"13","13",COMMUNITY SCHOOL DISTRICT 13,"SAMUELS, KAMAR",K044
32K045,K045,P.S./I.S. 045 Horace E. Greene,333200010045,DOE,General Academic,K-8,"PK,0K,01,02,03,04,05,06,07,08,SE","0K,01,02,03,04,05,06,07,08,SE",1966/07/01 00:00:00.000,Open,K045,84 SCHAEFER STREET,"1009091","189372",-73.910430000000005,40.686424000000002,"304","37","40100","3034270011",BK78,Bushwick South,"32","32",COMMUNITY SCHOOL DISTRICT 32,"GORSKI, SHEILA",K045
13K046,K046,P.S. 046 Edward C. Blum,331300010046,DOE,General Academic,Elementary,"PK,0K,01,02,03,04,05,06,SE","PK,0K,01,02,03,04,05",1960/07/01 00:00:00.000,Open,K046,100 CLERMONT AVENUE,"992113","192314",-73.971643999999998,40.694530000000000,"302","35","18700","3020450011",BK68,Fort Greene,"13","13",COMMUNITY SCHOOL DISTRICT 13,"SAMUELS, KAMAR",K046
20K048,K048,P.S. 048 Mapleton,332000010048,DOE,General Academic,Elementary,"PK,0K,01,02,03,04,05,SE","PK,0K,01,02,03,04,05,SE",1915/07/01 00:00:00.000,Open,K048,6015 18 AVENUE,"987813","165699",-73.987165000000005,40.621481000000003,"312","44","24400","3055190001",BK88,Borough Park,"20","20",COMMUNITY SCHOOL DISTRICT 20,"COSTANTINO, KARINA",K048
14K049,K049,J.H.S. 049 William J. Gaynor,331400010049,DOE,General Academic,Junior High-Intermediate-Middle,"08,SE","06,07,08",1937/07/01 00:00:00.000,Closed,K049,223 GRAHAM AVENUE,"999873","197948",-73.943600000000004,40.710000000000001,"301","34","50500","3030250001",BK90,East Williamsburg,"14","14",COMMUNITY SCHOOL DISTRICT 14,James Quail,K049
14K050,K050,J.H.S. 050 John D. Wells,331400010050,DOE,General Academic,Junior High-Intermediate-Middle,"06,07,08,SE","06,07,08",1915/07/01 00:00:00.000,Open,K050,183 SOUTH  3 STREET,"995301","198649",-73.960137000000003,40.711914999999998,"301","34","52300","3024190001",BK73,North Side-South Side,"14","14",COMMUNITY SCHOOL DISTRICT 14,"WINNICKI, ALICJA",K050
15K051,K051,M.S. 51 William Alexander,331500010051,DOE,General Academic,Junior High-Intermediate-Middle,"06,07,08,SE","06,07,08",1951/07/01 00:00:00.000,Open,K051,350 5 AVENUE,"988397","184235",-73.985050000000001,40.672358000000003,"306","39","13500","3009810111",BK37,Park Slope-Gowanus,"15","15",COMMUNITY SCHOOL DISTRICT 15,"SKOP, ANITA",K051
22K052,K052,P.S. 052 Sheepshead Bay,332200010052,DOE,General Academic,Elementary,"PK,0K,01,02,03,04,05,SE","PK,0K,01,02,03,04,05",1950/07/01 00:00:00.000,Open,K052,2675 EAST  29 STREET,"1000877","153642",-73.940134999999998,40.588372000000000,"315","48","60000","3074740001",BK17,Sheepshead Bay-Gerritsen Beach-Manhattan Beach,"22","22",COMMUNITY SCHOOL DISTRICT 22,"BOVE, JULIA",K052
75K053,K053,P.S. K053,307500013053,DOE,Special Education,K-12 all grades,"0K,01,02,03,04,05,06,07,08,09,10,11,12,SE","09,10,11,12,SE",1989/06/26 00:00:00.000,Open,K088,544 7TH AVENUE,"987373","180026",-73.988742999999999,40.660805000000003,"307","38","14700","3008800001",BK32,Sunset Park West,"15","75",CITYWIDE SPECIAL EDUCATION,"LOUISSAINT, KETLER",K053
13K054,K054,P.S. 054 Samuel C. Barnes,331300010054,DOE,General Academic,Elementary,"PK,0K,01,02,03,04,05,SE","PK,0K,01,02,03,04,05",1922/07/01 00:00:00.000,Open,K054,195 SANDFORD STREET,"997421","191619",-73.952504000000005,40.692616000000001,"303","33","24100","3017650015",BK75,Bedford,"13","13",COMMUNITY SCHOOL DISTRICT 13,"SAMUELS, KAMAR",K054
23K055,K055,I.S. 055 Ocean Hill Brownsville,332300010055,DOE,General Academic,Junior High-Intermediate-Middle,NULL,"06,07,08,09",1968/07/01 00:00:00.000,Closed,K055,2021 BERGEN STREET,"1008307","184882",-73.913300000000007,40.674100000000003,"316","41","36501","3014480001",BK79,Ocean Hill,"23","23",COMMUNITY SCHOOL DISTRICT 23,Donald Conyers,K055
13K056,K056,P.S. 056 Lewis H. Latimer,331300010056,DOE,General Academic,Elementary,"PK,0K,01,02,03,04,05,SE","PK,0K,01,02,03,04,05",1966/07/01 00:00:00.000,Open,K056,170 GATES AVENUE,"995195","188583",-73.960536000000005,40.684286000000000,"302","35","23100","3019830010",BK69,Clinton Hill,"13","13",COMMUNITY SCHOOL DISTRICT 13,"SAMUELS, KAMAR",K056
16K057,K057,Whitelaw Reid Academy of Arts and Business,331600010057,DOE,General Academic,Junior High-Intermediate-Middle,"06,07,08,SE","06,07,08",1954/07/01 00:00:00.000,Open,K057,125 STUYVESANT AVENUE,"1003037","191204",-73.932254000000000,40.691467000000003,"303","36","29100","3016160001",BK35,Stuyvesant Heights,"16","16",COMMUNITY SCHOOL DISTRICT 16,"MARTIN, YOLANDA",K057
15K058,K058,P.S. 058 The Carroll,331500010058,DOE,General Academic,Elementary,"PK,0K,01,02,03,04,05,SE","PK,0K,01,02,03,04,05",1957/07/01 00:00:00.000,Open,K058,330 SMITH STREET,"985502","187157",-73.995486000000000,40.680379000000002,"306","39","7700","3004490015",BK33,Carroll Gardens-Columbia Street-Red Hook,"15","15",COMMUNITY SCHOOL DISTRICT 15,"SKOP, ANITA",K058
14K059,K059,P.S. 059 William Floyd,331400010059,DOE,General Academic,Elementary,"PK,0K,01,02,03,04,05,SE","PK,0K,01,02,03,04,05",1956/07/01 00:00:00.000,Open,K059,211 THROOP AVENUE,"999978","193443",-73.943279000000004,40.697619000000003,"303","36","28502","3017490001",BK35,Stuyvesant Heights,"14","14",COMMUNITY SCHOOL DISTRICT 14,"WINNICKI, ALICJA",K059
17K061,K061,M.S. 061 Dr. Gladstone H. Atwell,331700010061,DOE,General Academic,Junior High-Intermediate-Middle,"06,07,08,SE","06,07,08",1958/07/01 00:00:00.000,Open,K061,400 EMPIRE BOULEVARD,"998344","181050",-73.949197999999996,40.663604999999997,"309","40","32900","3013160015",BK60,Prospect Lefferts Gardens-Wingate,"17","17",COMMUNITY SCHOOL DISTRICT 17,"ELLIS, CLARENCE",K061
20K062,K062,J.H.S. 062 Ditmas,332000010062,DOE,General Academic,Junior High-Intermediate-Middle,"06,07,08,SE","06,07,08",1957/07/01 00:00:00.000,Open,K062,700 CORTELYOU ROAD,"992256","171750",-73.971153000000001,40.638086999999999,"312","40","49000","3053910001",BK41,Kensington-Ocean Parkway,"20","20",COMMUNITY SCHOOL DISTRICT 20,"COSTANTINO, KARINA",K062
19K065,K065,P.S. 065,331900010065,DOE,General Academic,Elementary,"PK,0K,01,02,03,04,05,SE","0K,01,02,03,04,05",1873/07/01 00:00:00.000,Open,K798,696 JAMAICA AVENUE,"1017987","189423",-73.878353000000004,40.686534000000002,"305","37","117601","3041020019",BK83,Cypress Hills-City Line,"19","19",COMMUNITY SCHOOL DISTRICT 19,THOMAS MCBRYDE JR,K065
18K066,K066,P.S. 66,331800010066,DOE,General Academic,K-8,"PK,0K,01,02,03,04,05,06,07,08,SE","PK,0K,01,02,03,04,05,06,07,08",2003/07/01 00:00:00.000,Open,K066,845 EAST  96 STREET,"1010039","175647",-73.907064000000005,40.648749000000002,"318","42","97000","3081290060",BK50,Canarsie,"18","18",COMMUNITY SCHOOL DISTRICT 18,"WILKINS, BEVERLY",K066
13K067,K067,P.S. 067 Charles A. Dorsey,331300010067,DOE,General Academic,Elementary,"PK,0K,01,02,03,04,05,06,SE","PK,0K,01,02,03,04,05",1923/07/01 00:00:00.000,Open,K067,51 SAINT EDWARDS STREET,"990441","192608",-73.977673999999993,40.695338999999997,"302","35","2901","3020390002",BK68,Fort Greene,"13","13",COMMUNITY SCHOOL DISTRICT 13,"SAMUELS, KAMAR",K067
18K068,K068,I.S. 068 Isaac Bildersee,331800010068,DOE,General Academic,Junior High-Intermediate-Middle,"06,07,08,SE","06,07,08",1964/07/01 00:00:00.000,Open,K068,956 EAST  82 STREET,"1008892","170778",-73.911214999999999,40.635387999999999,"318","46","95600","3080180001",BK50,Canarsie,"18","18",COMMUNITY SCHOOL DISTRICT 18,"WILKINS, BEVERLY",K068
20K069,K069,P.S. 69 Vincent D. Grippo School,332000010069,DOE,General Academic,Elementary,"0K,01,02,03,04,05,SE","0K,01,02,03,04,05",2002/07/01 00:00:00.000,Open,K069,6302 9TH AVENUE,"981543","169674",-74.009752000000006,40.632392000000003,"310","38","12000","3057350032",BK34,Sunset Park East,"20","20",COMMUNITY SCHOOL DISTRICT 20,"COSTANTINO, KARINA",K069
20K069,K069,P.S. 69 Vincent D. Grippo School,332000010069,DOE,General Academic,Elementary,"0K,01,02,03,04,05,SE","0K,01,02,03,04,05",2002/07/01 00:00:00.000,Open,K069,6302 9TH AVENUE,"981543","169674",-74.009752000000006,40.632392000000003,"310","38","12000","3057350032",BK34,Sunset Park East,"20","20",COMMUNITY SCHOOL DISTRICT 20,"COSTANTINO, KARINA",K069
14K071,K071,Juan Morel Campos Secondary School,331400011071,DOE,General Academic,Secondary School,"06,07,08,09,10,11,12,SE","06,07,08,09,10,11,12",1970/07/01 00:00:00.000,Open,K071,215 HEYWARD STREET,"997197","195765",-73.953304000000003,40.703995999999997,"301","33","52900","3022270001",BK72,Williamsburg,"14","14",COMMUNITY SCHOOL DISTRICT 14,"WINNICKI, ALICJA",K071
19K072,K072,P.S./I.S. 072 Annette P Goldman,331900010072,DOE,General Academic,K-8,"05,07,08,SE","PK,0K,01,02,03,04,05",1975/07/01 00:00:00.000,Closed,K072,605 SHEPHERD AVENUE,"1017780","183165",-73.879131000000001,40.669358000000003,"305","42","116400","3040690001",BK82,East New York,"19","19",COMMUNITY SCHOOL DISTRICT 19,"MILLS, ROSE MARIE",K072
23K073,K073,P.S. 073 Thomas S. Boyland,332300010073,DOE,General Academic,K-8,"5","PK,0K,01,02,03,04,05,06,07,08",1889/07/01 00:00:00.000,Closed,K073,251 MCDOUGAL STREET,"1009013","187279",-73.910719000000000,40.680678999999998,"316","37","36900","3015280001",BK79,Ocean Hill,"23","23",COMMUNITY SCHOOL DISTRICT 23,"PATE, MIATHERESA",K073
32K075,K075,P.S. 075 Mayda Cortiella,333200010075,DOE,General Academic,Elementary,"PK,0K,01,02,03,04,05,SE","PK,0K,01,02,03,04,05",1908/07/01 00:00:00.000,Open,K075,95 GROVE STREET,"1006064","191860",-73.921335999999997,40.693261000000000,"304","34","41900","3033140001",BK78,Bushwick South,"32","32",COMMUNITY SCHOOL DISTRICT 32,"GORSKI, SHEILA",K075
75K077,K077,P.S. K077,307500013077,DOE,Special Education,K-12 all grades,"0K,01,02,03,04,05,06,07,08,09,10,11,12,SE","0K,01,02,03,04,05,06,07,08,09,10,11,12",1999/07/01 00:00:00.000,Open,K902,62 PARK PLACE,"990727","186586",-73.976647999999997,40.678809000000001,"306","39","12902","3009410050",BK37,Park Slope-Gowanus,"13","75",CITYWIDE SPECIAL EDUCATION,"LOUISSAINT, KETLER",K077
22K078,K078,J.H.S. 078 Roy H. Mann,332200010078,DOE,General Academic,Junior High-Intermediate-Middle,"06,07,08,SE","06,07,08",1964/07/01 00:00:00.000,Open,K078,1420 EAST  68 STREET,"1008426","165367",-73.912914000000001,40.620536999999999,"318","46","69602","3083880002",BK45,Georgetown-Marine Park-Bergen Beach-Mill Basin,"22","22",COMMUNITY SCHOOL DISTRICT 22,"BOVE, JULIA",K078
16K081,K081,P.S. 081 Thaddeus Stevens,331600010081,DOE,General Academic,Elementary,"PK,0K,01,02,03,04,05,SE","PK,0K,01,02,03,04,05",1966/07/01 00:00:00.000,Open,K081,990 DEKALB AVENUE,"1002241","191713",-73.935123000000004,40.692866000000002,"303","36","28900","3016020019",BK35,Stuyvesant Heights,"16","16",COMMUNITY SCHOOL DISTRICT 16,"MARTIN, YOLANDA",K081
14K084,K084,P.S. 084 Jose De Diego,331400010084,DOE,General Academic,K-8,"PK,0K,01,02,03,04,05,06,07,08,SE","PK,0K,01,02,03,04,05,06,07,08",1969/07/01 00:00:00.000,Open,K084,250 BERRY STREET,"994283","199805",-73.963808000000000,40.715088999999999,"301","34","55100","3023910001",BK73,North Side-South Side,"14","14",COMMUNITY SCHOOL DISTRICT 14,"WINNICKI, ALICJA",K084
32K086,K086,P.S. 086 The Irvington,333200010086,DOE,General Academic,Elementary,"0K,01,02,03,04,05,SE","0K,01,02,03,04,05",1892/07/01 00:00:00.000,Open,K086,220 IRVING AVENUE,"1007041","194533",-73.917804000000004,40.700595000000000,"304","37","43100","3032890027",BK77,Bushwick North,"32","32",COMMUNITY SCHOOL DISTRICT 32,"GORSKI, SHEILA",K086
15K088,K088,J.H.S. 088 Peter Rouget,331500010088,DOE,General Academic,Junior High-Intermediate-Middle,"06,07,08,SE","06,07,08",1967/07/01 00:00:00.000,Open,K088,544 7TH AVENUE,"987373","180026",-73.988742999999999,40.660805000000003,"307","38","14700","3008800001",BK32,Sunset Park West,"15","15",COMMUNITY SCHOOL DISTRICT 15,"SKOP, ANITA",K088
19K089,K089,P.S. 089 Cypress Hills,331900010089,DOE,General Academic,K-8,"PK,0K,01,02,03,04,05,06,07,08,SE","0K,01,02,03,04,05,06,07,08",1997/09/01 00:00:00.000,Open,K814,265 WARWICK STREET,"1015673","186204",-73.886712000000003,40.677706999999998,"305","37","117000","3039520047",BK82,East New York,"19","19",COMMUNITY SCHOOL DISTRICT 19,THOMAS MCBRYDE JR,K089
21K090,K090,P.S. 90 Edna Cohen School,332100010090,DOE,General Academic,Elementary,"PK,0K,01,02,03,04,05,SE","PK,0K,01,02,03,04,05",1965/07/01 00:00:00.000,Open,K090,2840 WEST  12 STREET,"989698","149928",-73.980386999999993,40.578192000000001,"313","47","35000","3072660040",BK23,West Brighton,"21","21",COMMUNITY SCHOOL DISTRICT 21,"DIMOLA, ISABEL",K090
17K091,K091,P.S. 091 The Albany Avenue School,331700010091,DOE,General Academic,Elementary,"PK,0K,01,02,03,04,05,SE","PK,0K,01,02,03,04,05,SE",1904/07/01 00:00:00.000,Open,K091,532 ALBANY AVENUE,"1000700","180396",-73.940707000000003,40.661805999999999,"309","41","80600","3047940026",BK60,Prospect Lefferts Gardens-Wingate,"17","17",COMMUNITY SCHOOL DISTRICT 17,"ELLIS, CLARENCE",K091
17K092,K092,P.S. 092 Adrian Hegeman,331700010092,DOE,General Academic,Elementary,"PK,0K,01,02,03,04,05,SE","PK,0K,01,02,03,04,05",1906/07/01 00:00:00.000,Open,K092,601 PARKSIDE AVENUE,"997066","178379",-73.953810000000004,40.656275999999998,"309","40","80200","3050490055",BK60,Prospect Lefferts Gardens-Wingate,"17","17",COMMUNITY SCHOOL DISTRICT 17,"ELLIS, CLARENCE",K092
13K093,K093,P.S. 093 William H. Prescott,331300010093,DOE,General Academic,Elementary,"PK,0K,01,02,03,04,05,SE","PK,0K,01,02,03,04,05",1909/07/01 00:00:00.000,Open,K093,31 NEW YORK AVENUE,"999122","186688",-73.946381000000002,40.679079000000002,"303","36","24700","3018680007",BK61,Crown Heights North,"13","13",COMMUNITY SCHOOL DISTRICT 13,"SAMUELS, KAMAR",K093
15K094,K094,P.S. 094 The Henry Longfellow,331500010094,DOE,General Academic,Elementary,"0K,01,02,03,04,05,SE","0K,01,02,03,04,05",1908/07/01 00:00:00.000,Open,K094,5010 6 AVENUE,"981809","173805",-74.008795000000006,40.643729999999998,"307","38","9800","3007920026",BK34,Sunset Park East,"15","15",COMMUNITY SCHOOL DISTRICT 15,"SKOP, ANITA",K094
21K095,K095,P.S. 095 The Gravesend,332100010095,DOE,General Academic,K-8,"PK,0K,01,02,03,04,05,06,07,08,SE","PK,0K,01,02,03,04,05,06,07,08",1915/07/01 00:00:00.000,Open,K095,345 VAN SICKLEN STREET,"991286","156415",-73.974664000000004,40.595996000000000,"315","47","39800","3071230066",BK26,Gravesend,"21","21",COMMUNITY SCHOOL DISTRICT 21,"DIMOLA, ISABEL",K095
21K096,K096,I.S. 096 Seth Low,332100010096,DOE,General Academic,Junior High-Intermediate-Middle,"06,07,08,SE","06,07,08",1929/07/01 00:00:00.000,Open,K096,99 AVENUE P,"988419","160837",-73.984984999999995,40.608134999999997,"311","44","43000","3065950033",BK29,Bensonhurst East,"21","21",COMMUNITY SCHOOL DISTRICT 21,"DIMOLA, ISABEL",K096
21K097,K097,P.S. 97 The Highlawn,332100010097,DOE,General Academic,Elementary,"0K,01,02,03,04,05,SE","PK,0K,01,02,03,04,05",1921/07/01 00:00:00.000,Open,K097,1855 STILLWELL AVENUE,"988257","158307",-73.985569999999996,40.601191000000000,"311","47","40400","3066670024",BK29,Bensonhurst East,"21","21",COMMUNITY SCHOOL DISTRICT 21,"DIMOLA, ISABEL",K097
21K098,K098,I.S. 98 Bay Academy,332100010098,DOE,General Academic,Junior High-Intermediate-Middle,"06,07,08,SE","06,07,08",1997/06/20 00:00:00.000,Open,K043,1401 EMMONS AVENUE,"997014","152008",-73.954047000000003,40.583893000000003,"315","48","60800","3087670026",BK17,Sheepshead Bay-Gerritsen Beach-Manhattan Beach,"21","21",COMMUNITY SCHOOL DISTRICT 21,"DIMOLA, ISABEL",K098
21K099,K099,P.S. 099 Isaac Asimov,332100010099,DOE,General Academic,K-8,"PK,0K,01,02,03,04,05,06,07,08,SE","PK,0K,01,02,03,04,05,06,07,08",1914/07/01 00:00:00.000,Open,K099,1120 EAST  10 STREET,"993680","165698",-73.966031000000001,40.621473999999999,"312","44","45400","3065350011",BK46,Ocean Parkway South,"21","21",COMMUNITY SCHOOL DISTRICT 21,"DIMOLA, ISABEL",K099
21K100,K100,P.S. 100 The Coney Island School,332100010100,DOE,General Academic,Elementary,"PK,0K,01,02,03,04,05,SE","PK,0K,01,02,03,04,05",1924/07/01 00:00:00.000,Open,K100,2951 WEST  3 STREET,"992353","149710",-73.970830000000007,40.577590999999998,"313","48","35602","3072810001",BK23,West Brighton,"21","21",COMMUNITY SCHOOL DISTRICT 21,"DIMOLA, ISABEL",K100
21K101,K101,P.S. 101 The Verrazano,332100010101,DOE,General Academic,Elementary,"0K,01,02,03,04,05,SE","PK,0K,01,02,03,04,05",1927/07/01 00:00:00.000,Open,K101,2360 BENSON AVENUE,"986482","156918",-73.991962000000001,40.597378999999997,"311","47","30200","3068750032",BK29,Bensonhurst East,"21","21",COMMUNITY SCHOOL DISTRICT 21,"DIMOLA, ISABEL",K101
20K102,K102,P.S. 102 The Bayview,332000010102,DOE,General Academic,Elementary,"0K,01,02,03,04,05,06,SE","0K,01,02,03,04,05",1900/07/01 00:00:00.000,Open,K102,211 72 STREET,"976268","170377",-74.028757999999996,40.634318000000000,"310","43","6800","3058900001",BK31,Bay Ridge,"20","20",COMMUNITY SCHOOL DISTRICT 20,"COSTANTINO, KARINA",K102
13K103,K103,Satellite Three,331300010103,DOE,General Academic,Junior High-Intermediate-Middle,"08,SE","06,07,08",1999/07/01 00:00:00.000,Closed,K056,170 GATES AVENUE,"995195","188583",-73.960536000000005,40.684286000000000,"302","35","23100","3019830010",BK69,Clinton Hill,"13","13",COMMUNITY SCHOOL DISTRICT 13,"FREEMAN, BARBARA",K103
20K104,K104,P.S./I.S. 104 The Fort Hamilton School,332000010104,DOE,General Academic,K-8,"0K,01,02,03,04,05,06,07,08,SE","0K,01,02,03,04,05,06,07,08",1907/07/01 00:00:00.000,Open,K104,9115 5 AVENUE,"976340","164460",-74.028492000000000,40.618077000000000,"310","43","16000","3060880001",BK31,Bay Ridge,"20","20",COMMUNITY SCHOOL DISTRICT 20,"COSTANTINO, KARINA",K104
20K105,K105,P.S. 105 The Blythebourne,332000010105,DOE,General Academic,Elementary,"0K,01,02,03,04,05","PK,0K,01,02,03,04,05",1926/07/01 00:00:00.000,Open,K105,1031 59 STREET,"983241","170012",-74.003635000000003,40.633319999999998,"312","38","21400","3057020001",BK88,Borough Park,"20","20",COMMUNITY SCHOOL DISTRICT 20,"COSTANTINO, KARINA",K105
32K106,K106,P.S. 106 Edward Everett Hale,333200010106,DOE,General Academic,Elementary,"PK,0K,01,02,03,04,05,SE","PK,0K,01,02,03,04,05",1894/07/01 00:00:00.000,Open,K106,1328 PUTNAM AVENUE,"1008271","191883",-73.913377999999994,40.693317999999998,"304","37","41500","3033760034",BK78,Bushwick South,"32","32",COMMUNITY SCHOOL DISTRICT 32,"GORSKI, SHEILA",K106
15K107,K107,P.S. 107 John W. Kimball,331500010107,DOE,General Academic,Elementary,"PK,0K,01,02,03,04,05,SE","0K,01,02,03,04,05",1894/07/01 00:00:00.000,Open,K107,1301 8 AVENUE,"989471","180806",-73.981181000000007,40.662945000000001,"306","39","16700","3011010001",BK37,Park Slope-Gowanus,"15","15",COMMUNITY SCHOOL DISTRICT 15,"SKOP, ANITA",K107
19K108,K108,P.S. 108 Sal Abbracciamento,331900010108,DOE,General Academic,Elementary,"PK,0K,01,02,03,04,05,SE","0K,01,02,03,04,05",1895/07/01 00:00:00.000,Open,K108,200 LINWOOD STREET,"1016327","187512",-73.884348000000003,40.681294999999999,"305","37","117202","3039260045",BK83,Cypress Hills-City Line,"19","19",COMMUNITY SCHOOL DISTRICT 19,THOMAS MCBRYDE JR,K108
22K109,K109,P.S. 109,332200010109,DOE,General Academic,K-8,"PK,0K,01,02,03,04,05,06,07,08,SE","0K,01,02,03,04,05,06,07,08",1995/09/08 00:00:00.000,Open,K395,1001 EAST  45 STREET,"1002818","170938",-73.933098999999999,40.635841999999997,"317","45","83600","3050220002",BK91,East Flatbush-Farragut,"22","22",COMMUNITY SCHOOL DISTRICT 22,"BOVE, JULIA",K109
22K109,K109,P.S. 109,332200010109,DOE,General Academic,K-8,"PK,0K,01,02,03,04,05,06,07,08,SE","0K,01,02,03,04,05,06,07,08",1995/09/08 00:00:00.000,Open,K395,1001 EAST  45 STREET,"1002818","170938",-73.933098999999999,40.635841999999997,"317","45","83600","3050220002",BK91,East Flatbush-Farragut,"22","22",COMMUNITY SCHOOL DISTRICT 22,"BOVE, JULIA",K109
14K110,K110,P.S. 110 The Monitor,331400010110,DOE,General Academic,Elementary,"PK,0K,01,02,03,04,05,SE","PK,0K,01,02,03,04,05",1895/07/01 00:00:00.000,Open,K110,124 MONITOR STREET,"1000347","202961",-73.941925999999995,40.723742999999999,"301","33","59100","3026880042",BK76,Greenpoint,"14","14",COMMUNITY SCHOOL DISTRICT 14,"WINNICKI, ALICJA",K110
20K112,K112,P.S. 112 Lefferts Park,332000010112,DOE,General Academic,Elementary,"PK,0K,01,02,03,04,05,SE","0K,01,02,03,04,05",1905/07/01 00:00:00.000,Open,K112,7115 15 AVENUE,"984093","164947",-74.000564999999995,40.619416999999999,"311","43","19000","3061800001",BK28,Bensonhurst West,"20","20",COMMUNITY SCHOOL DISTRICT 20,"COSTANTINO, KARINA",K112
13K113,K113,M.S. 113 Ronald Edmonds Learning Center,331300010113,DOE,General Academic,Junior High-Intermediate-Middle,"06,07,08,SE","06,07,08",1962/07/01 00:00:00.000,Open,K113,300 ADELPHI STREET,"992161","190215",-73.971474000000001,40.688769000000001,"302","35","18100","3021030004",BK68,Fort Greene,"13","13",COMMUNITY SCHOOL DISTRICT 13,"SAMUELS, KAMAR",K113
18K114,K114,P.S. 114 Ryder Elementary,331800010114,DOE,General Academic,Elementary,"PK,0K,01,02,03,04,05,SE","PK,0K,01,02,03,04,05",1907/07/01 00:00:00.000,Open,K114,1077 REMSEN AVENUE,"1009815","173437",-73.907880000000006,40.642684000000003,"318","46","96400","3081600022",BK50,Canarsie,"18","18",COMMUNITY SCHOOL DISTRICT 18,"WILKINS, BEVERLY",K114
18K115,K115,P.S. 115 Daniel Mucatel School,331800010115,DOE,General Academic,Elementary,"PK,0K,01,02,03,04,05,SE","PK,0K,01,02,03,04,05",1922/07/01 00:00:00.000,Open,K115,1500 EAST  92 STREET,"1012589","170590",-73.897896000000003,40.634861000000001,"318","46","100800","3082560001",BK50,Canarsie,"18","18",COMMUNITY SCHOOL DISTRICT 18,"WILKINS, BEVERLY",K115
32K116,K116,P.S. 116 Elizabeth L Farrell,333200010116,DOE,General Academic,Elementary,"PK,0K,01,02,03,04,05,SE","0K,01,02,03,04,05",1897/07/01 00:00:00.000,Open,K116,515 KNICKERBOCKER AVENUE,"1007386","193616",-73.916562999999996,40.698076999999998,"304","37","43300","3033170001",BK77,Bushwick North,"32","32",COMMUNITY SCHOOL DISTRICT 32,"GORSKI, SHEILA",K116
13K117,K117,J.H.S. 117 Francis Scott Key,331300010117,DOE,General Academic,Junior High-Intermediate-Middle,"08,SE","06,07,08",1955/07/01 00:00:00.000,Closed,K117,300 WILLOUGHBY AVENUE,"995677","191627",-73.958799999999997,40.692599999999999,"303","33","23500","3019260010",BK69,Clinton Hill,"13","13",COMMUNITY SCHOOL DISTRICT 13,James Machen,K117
15K118,K118,The Maurice Sendak Community School,331500010118,DOE,General Academic,Elementary,"PK,0K,01,02,03,04,05,SE","PK,0K,01,02,03,04,05",2013/07/01 00:00:00.000,Open,K763,211 8TH STREET,"987689","183793",-73.987601999999995,40.671145000000003,"306","39","13700","3009980001",BK37,Park Slope-Gowanus,"15","15",COMMUNITY SCHOOL DISTRICT 15,"SKOP, ANITA",K118
22K119,K119,P.S. 119 Amersfort,332200010119,DOE,General Academic,Elementary,"PK,0K,01,02,03,04,05,SE","0K,01,02,03,04,05",1904/07/01 00:00:00.000,Open,K119,3829 AVENUE K,"1001257","167365",-73.938732999999999,40.626038000000001,"318","45","73400","3077860001",BK58,Flatlands,"22","22",COMMUNITY SCHOOL DISTRICT 22,"BOVE, JULIA",K119
14K120,K120,P.S. 120 Carlos Tapia,331400010120,DOE,General Academic,Elementary,"PK,0K,01,02,03,04,05,SE","PK,0K,01,02,03,04,05",1965/07/01 00:00:00.000,Open,K120,18 BEAVER STREET,"1001472","194610",-73.937888000000001,40.700819000000003,"304","34","38900","3031370026",BK78,Bushwick South,"14","14",COMMUNITY SCHOOL DISTRICT 14,"WINNICKI, ALICJA",K120
21K121,K121,P.S. 121 Nelson A. Rockefeller,332100010121,DOE,General Academic,K-8,"0K,01,02,03,04,05,06,07,08,SE","PK,0K,01,02,03,04,05,06,07,08",1929/07/01 00:00:00.000,Open,K121,5301 20 AVENUE,"990226","166133",-73.978471999999996,40.622670999999997,"312","44","46400","3054951101",BK88,Borough Park,"21","21",COMMUNITY SCHOOL DISTRICT 21,"DIMOLA, ISABEL",K121
17K122,K122,Pathways in Technology Early College High School (,331700011122,DOE,Career Technical,High school,"09,10,11,12,SE","09,10,11,12,13,14",2011/07/01 00:00:00.000,Open,K625,150 ALBANY AVENUE,"1001092","185533",-73.939282000000006,40.675905000000000,"308","36","31100","3012160046",BK61,Crown Heights North,"17","17",NULL,NULL,K122
32K123,K123,P.S. 123 Suydam,333200010123,DOE,General Academic,Elementary,"PK,0K,01,02,03,04,05,SE","0K,01,02,03,04,05",1901/07/01 00:00:00.000,Open,K123,100 IRVING AVENUE,"1005769","195800",-73.922387999999998,40.704076000000001,"304","34","44500","3032100001",BK77,Bushwick North,"32","32",COMMUNITY SCHOOL DISTRICT 32,"GORSKI, SHEILA",K123
15K124,K124,P.S. 124 Silas B. Dutcher,331500010124,DOE,General Academic,Elementary,"PK,0K,01,02,03,04,05,SE","PK,0K,01,02,03,04,05",1900/07/01 00:00:00.000,Open,K124,515 4 AVENUE,"986852","182452",-73.990620000000007,40.667464000000002,"306","39","14100","3010340001",BK37,Park Slope-Gowanus,"15","15",COMMUNITY SCHOOL DISTRICT 15,"SKOP, ANITA",K124
84K125,K125,Success Academy Charter School - Bed-Stuy 2,331400861022,Charter,General Academic,Elementary,"0K,01,02,03,04,05","0K,01,02,03,04",2012/07/01 00:00:00.000,Open,K059,211 THROOP AVENUE,"999978","193443",-73.943279000000004,40.697619000000003,"303","36","28502","3017490001",BK35,Stuyvesant Heights,"14","84",OFFICE OF CHARTER SCHOOLS,NULL,K125
14K126,K126,John Ericsson Middle School 126,331400010126,DOE,General Academic,Junior High-Intermediate-Middle,"06,07,08,SE","06,07,08",1966/07/01 00:00:00.000,Open,K126,424 LEONARD STREET,"998683","201530",-73.947931999999994,40.719817999999997,"301","33","49900","3027120001",BK76,Greenpoint,"14","14",COMMUNITY SCHOOL DISTRICT 14,"WINNICKI, ALICJA",K126
20K127,K127,P.S. 127 Mckinley Park,332000010127,DOE,General Academic,Elementary,"0K,01,02,03,04,05,SE","0K,01,02,03,04,05",1900/07/01 00:00:00.000,Open,K127,7805 7 AVENUE,"979134","166503",-74.018428999999998,40.623686999999997,"310","43","20600","3059730001",BK30,Dyker Heights,"20","20",COMMUNITY SCHOOL DISTRICT 20,"COSTANTINO, KARINA",K127
21K128,K128,P.S. 128 Bensonhurst,332100010128,DOE,General Academic,Elementary,"0K,01,02,03,04,05,SE","PK,0K,01,02,03,04,05",1900/07/01 00:00:00.000,Open,K128,2075 84 STREET,"985615","159687",-73.995084000000006,40.604979999999998,"311","47","28800","3063290032",BK28,Bensonhurst West,"21","21",COMMUNITY SCHOOL DISTRICT 21,"DIMOLA, ISABEL",K128
84K129,K129,Success Academy Charter School - Cobble Hill,331500861023,Charter,General Academic,K-8,"0K,01,02,03,04,05,06,07,08,SE","0K,01,02,03,04,05,06,07,08,09,10,11,12",2012/07/01 00:00:00.000,Open,K293,284 BALTIC STREET,"986110","188843",-73.993292999999994,40.685006000000001,"306","33","6900","3004020001",BK38,DUMBO-Vinegar Hill-Downtown Brooklyn-Boerum Hill,"15","84",OFFICE OF CHARTER SCHOOLS,NULL,K129
15K130,K130,P.S. 130 The Parkside,331500010130,DOE,General Academic,Elementary,"PK,0K,01,02,03,04,05,SE","PK,0K,01,02,03,04,05",1903/07/01 00:00:00.000,Open,K130,70 OCEAN PARKWAY,"990895","175698",-73.976052999999993,40.648924000000001,"307","39","50000","3053190001",BK40,Windsor Terrace,"15","15",COMMUNITY SCHOOL DISTRICT 15,"SKOP, ANITA",K130
15K131,K131,P.S. 131 Brooklyn,331500010131,DOE,General Academic,Elementary,"PK,0K,01,02,03,04,05,SE","PK,0K,01,02,03,04,05",1901/07/01 00:00:00.000,Open,K131,4305 FT HAMILTON PARKWAY,"986124","172711",-73.993246999999997,40.640728000000003,"312","39","22400","3056030001",BK88,Borough Park,"15","15",COMMUNITY SCHOOL DISTRICT 15,"SKOP, ANITA",K131
14K132,K132,P.S. 132 The Conselyea School,331400010132,DOE,General Academic,Elementary,"PK,0K,01,02,03,04,05,SE","PK,0K,01,02,03,04,05,SE",1902/07/01 00:00:00.000,Open,K132,320 MANHATTAN AVENUE,"999313","199692",-73.945662999999996,40.714772000000004,"301","34","49700","3027590001",BK90,East Williamsburg,"14","14",COMMUNITY SCHOOL DISTRICT 14,"WINNICKI, ALICJA",K132
13K133,K133,P.S. 133 William A. Butler,331300010133,DOE,General Academic,Elementary,"PK,0K,01,02,03,04,05,SE","PK,0K,01,02,03,04,05",1900/07/01 00:00:00.000,Open,K317,610 BALTIC STREET,"989671","186989",-73.980455000000006,40.679915999999999,"306","39","12901","3009400111",BK37,Park Slope-Gowanus,"13","13",COMMUNITY SCHOOL DISTRICT 13,"SAMUELS, KAMAR",K133
22K134,K134,P.S. K134,332200010134,DOE,General Academic,Elementary,"0K,01,02,03,04,05,SE","PK,0K,01,02,03,04,05",1999/07/01 00:00:00.000,Open,K849,4001 18 AVENUE,"991694","169585",-73.973179999999999,40.632145000000001,"314","44","48000","3054160048",BK42,Flatbush,"22","22",COMMUNITY SCHOOL DISTRICT 22,"BOVE, JULIA",K134
18K135,K135,P.S. 135 Sheldon A. Brookner,331800010135,DOE,General Academic,Elementary,"PK,0K,01,02,03,04,05,SE","PK,0K,01,02,03,04,05",1923/07/01 00:00:00.000,Open,K135,684 LINDEN BOULEVARD,"1002855","177223",-73.932948999999994,40.653092999999998,"317","41","87000","3046730001",BK91,East Flatbush-Farragut,"18","18",COMMUNITY SCHOOL DISTRICT 18,"WILKINS, BEVERLY",K135
15K136,K136,I.S. 136 Charles O. Dewey,331500010136,DOE,General Academic,Junior High-Intermediate-Middle,"06,07,08,SE","06,07,08",1901/07/01 00:00:00.000,Open,K136,4004 4 AVENUE,"982142","176864",-74.007596000000007,40.652127000000000,"307","38","8200","3007130020",BK32,Sunset Park West,"15","15",COMMUNITY SCHOOL DISTRICT 15,"SKOP, ANITA",K136
23K137,K137,P.S./I.S. 137 Rachel Jean Mitchell,332300010137,DOE,General Academic,Elementary,"PK,0K,01,02,03,04,05,SE","PK,0K,01,02,03,04,05",1902/07/01 00:00:00.000,Open,K137,121 SARATOGA AVENUE,"1007370","187849",-73.916640999999998,40.682248000000001,"316","41","37300","3015100001",BK79,Ocean Hill,"23","23",COMMUNITY SCHOOL DISTRICT 23,"PATE, MIATHERESA",K137
17K138,K138,P.S. 138 Brooklyn,331700010138,DOE,General Academic,K-8,"PK,0K,01,02,03,04,05,06,07,08,SE","PK,0K,01,02,03,04,05,06,07,08",1902/07/01 00:00:00.000,Open,K138,760 PROSPECT PLACE,"997687","184816",-73.951559000000003,40.673943000000001,"308","36","31701","3012330026",BK61,Crown Heights North,"17","17",COMMUNITY SCHOOL DISTRICT 17,"ELLIS, CLARENCE",K138
17K138,K138,P.S. 138 Brooklyn,331700010138,DOE,General Academic,K-8,"PK,0K,01,02,03,04,05,06,07,08,SE","PK,0K,01,02,03,04,05,06,07,08",1902/07/01 00:00:00.000,Open,K138,760 PROSPECT PLACE,"997687","184816",-73.951559000000003,40.673943000000001,"308","36","31701","3012330026",BK61,Crown Heights North,"17","17",COMMUNITY SCHOOL DISTRICT 17,"ELLIS, CLARENCE",K138
22K139,K139,P.S. 139 Alexine A. Fenty,332200010139,DOE,General Academic,Elementary,"PK,0K,01,02,03,04,05,SE","PK,0K,01,02,03,04,05",1902/07/01 00:00:00.000,Open,K139,330 RUGBY ROAD,"993724","172936",-73.965862000000001,40.641340000000000,"314","40","152200","3051440064",BK42,Flatbush,"22","22",COMMUNITY SCHOOL DISTRICT 22,"BOVE, JULIA",K139
75K140,K140,P.S. K140,307500013140,DOE,Special Education,K-8,"0K,01,02,03,04,05,06,07,08,SE","0K,01,02,03,04,05,06,07,08,SE",1999/07/01 00:00:00.000,Open,K258,141 MACON STREET,"999338","187723",-73.945599999999999,40.681919999999998,"303","36","26900","3018450001",BK75,Bedford,"13","75",CITYWIDE SPECIAL EDUCATION,"LOUISSAINT, KETLER",K140
75K141,K141,P.S. K141,307500013141,DOE,Special Education,K-12 all grades,"PK,0K,01,02,03,04,05,06,07,08,09,10,11,SE","PK,0K,01,02,03,04,05,06,07,08,09,10,11,SE",1996/04/18 00:00:00.000,Open,K002,655 PARKSIDE AVENUE,"997686","178433",-73.951575000000005,40.656422999999997,"309","40","80200","3050500051",BK60,Prospect Lefferts Gardens-Wingate,"17","75",CITYWIDE SPECIAL EDUCATION,"LOUISSAINT, KETLER",K141
15K142,K142,JHS 142,331500010142,DOE,General Academic,Junior High-Intermediate-Middle,NULL,NULL,1903/07/01 00:00:00.000,Closed,K142,610 HENRY STREET,"983868","187044",-74.001400000000004,40.680100000000003,"306","39","6300","3003690001",BK33,Carroll Gardens-Columbia Street-Red Hook,"15","15",COMMUNITY SCHOOL DISTRICT 15,Rosemary Stuart,K142
16K143,K143,M.S. 143 Performing & Fine Arts,331600010143,DOE,General Academic,Junior High-Intermediate-Middle,NULL,"06,07,08",1999/07/01 00:00:00.000,Closed,K324,800 GATES AVENUE,"1003098","190066",-73.932000000000002,40.688299999999998,"303","36","29300","3016360001",BK35,Stuyvesant Heights,"16","16",COMMUNITY SCHOOL DISTRICT 16,Evelyn Santiago,K143
32K145,K145,P.S. 145 Andrew Jackson,333200010145,DOE,General Academic,Elementary,"PK,0K,01,02,03,04,05,SE","PK,0K,01,02,03,04,05",1905/07/01 00:00:00.000,Open,K145,100 NOLL STREET,"1002997","194716",-73.932388000000003,40.701107000000000,"304","34","42500","3031530011",BK78,Bushwick South,"32","32",COMMUNITY SCHOOL DISTRICT 32,"GORSKI, SHEILA",K145
15K146,K146,"The Brooklyn New School, P.S. 146",331500010146,DOE,General Academic,Elementary,"PK,0K,01,02,03,04,05,SE","PK,0K,01,02,03,04,05",1992/01/08 00:00:00.000,Open,K142,610 HENRY STREET,"983689","186823",-74.002021999999997,40.679462000000001,"306","39","6300","3003690001",BK33,Carroll Gardens-Columbia Street-Red Hook,"15","15",COMMUNITY SCHOOL DISTRICT 15,"SKOP, ANITA",K146
14K147,K147,P.S. 147 Isaac Remsen,331400010147,DOE,General Academic,Elementary,"PK,0K,01,02,03,04,05,SE","PK,0K,01,02,03,04,05",1906/07/01 00:00:00.000,Open,K147,325 BUSHWICK AVENUE,"1001221","196135",-73.938789999999997,40.705005000000000,"301","34","48500","3030910001",BK78,Bushwick South,"14","14",COMMUNITY SCHOOL DISTRICT 14,"WINNICKI, ALICJA",K147
19K149,K149,P.S. 149 Danny Kaye,331900010149,DOE,General Academic,Elementary,"PK,0K,01,02,03,04,05,SE","PK,0K,01,02,03,04,05",1906/07/01 00:00:00.000,Open,K149,700 SUTTER AVENUE,"1013999","183161",-73.892759999999996,40.669361000000002,"305","42","115800","3037740016",BK85,East New York (Pennsylvania Ave),"19","19",COMMUNITY SCHOOL DISTRICT 19,THOMAS MCBRYDE JR,K149
23K150,K150,P.S. 150 Christopher,332300010150,DOE,General Academic,Elementary,"PK,0K,01,02,03,04,05,SE","0K,01,02,03,04,05,SE",1907/07/01 00:00:00.000,Open,K150,364 SACKMAN STREET,"1010565","182941",-73.905140000000003,40.668768000000000,"316","41","90800","3037440009",BK81,Brownsville,"23","23",COMMUNITY SCHOOL DISTRICT 23,"PATE, MIATHERESA",K150
32K151,K151,P.S. 151 Lyndon B. Johnson,333200010151,DOE,General Academic,Elementary,"PK,0K,01,02,03,04,05,SE","PK,0K,01,02,03,04,05",1906/07/01 00:00:00.000,Open,K151,763 KNICKERBOCKER AVENUE,"1009695","191926",-73.908242000000001,40.693432000000001,"304","37","43700","3034060001",BK77,Bushwick North,"32","32",COMMUNITY SCHOOL DISTRICT 32,"GORSKI, SHEILA",K151
22K152,K152,School of Science & Technology,332200010152,DOE,General Academic,Elementary,"PK,0K,01,02,03,04,05,SE","PK,0K,01,02,03,04,05",1907/07/01 00:00:00.000,Open,K152,725 EAST  23 STREET,"996943","169760",-73.954268999999996,40.632618999999998,"314","45","77200","3075510026",BK42,Flatbush,"22","22",COMMUNITY SCHOOL DISTRICT 22,"BOVE, JULIA",K152
22K152,K152,School of Science & Technology,332200010152,DOE,General Academic,Elementary,"PK,0K,01,02,03,04,05,SE","PK,0K,01,02,03,04,05",1907/07/01 00:00:00.000,Open,K152,725 EAST  23 STREET,"996943","169760",-73.954268999999996,40.632618999999998,"314","45","77200","3075510026",BK42,Flatbush,"22","22",COMMUNITY SCHOOL DISTRICT 22,"BOVE, JULIA",K152
21K153,K153,P.S. 153 Homecrest,332100010153,DOE,General Academic,Elementary,"PK,0K,01,02,03,04,05,SE","PK,0K,01,02,03,04,05",1908/07/01 00:00:00.000,Open,K153,1970 HOMECREST AVENUE,"995350","158305",-73.960026999999997,40.601179000000002,"315","48","55600","3072910030",BK25,Homecrest,"21","21",COMMUNITY SCHOOL DISTRICT 21,"DIMOLA, ISABEL",K153
15K154,K154,The Windsor Terrace School,331500010154,DOE,General Academic,Elementary,"0K,01,02,03,04,05,SE","PK,0K,01,02,03,04,05",1908/07/01 00:00:00.000,Open,K154,1625 11 AVENUE,"990918","178641",-73.975966999999997,40.657001999999999,"307","39","17100","3052570001",BK40,Windsor Terrace,"15","15",COMMUNITY SCHOOL DISTRICT 15,"SKOP, ANITA",K154
23K155,K155,P.S./ I.S. 155 Nicholas Herkimer,332300010155,DOE,General Academic,K-8,"PK,0K,01,02,03,04,05,06,07,08,SE","PK,0K,01,02,03,04,05,06,07,08",1908/07/01 00:00:00.000,Open,K155,1355 HERKIMER STREET,"1009579","186170",-73.908681999999999,40.677633999999998,"316","37","36900","3015520043",BK79,Ocean Hill,"23","23",COMMUNITY SCHOOL DISTRICT 23,"PATE, MIATHERESA",K155
23K156,K156,P.S. 156 Waverly,332300010156,DOE,General Academic,Elementary,"PK,0K,01,02,03,04,05,SE","PK,0K,01,02,03,04,05",1999/07/01 00:00:00.000,Open,K356,104 SUTTER AVENUE,"1007032","181766",-73.917879999999997,40.665553000000003,"316","41","90000","3035350016",BK81,Brownsville,"23","23",COMMUNITY SCHOOL DISTRICT 23,"PATE, MIATHERESA",K156
14K157,K157,P.S./I.S. 157 The Benjamin Franklin Health & Scien,331400010157,DOE,General Academic,K-8,"PK,0K,01,02,03,04,05,06,07,08,SE","PK,0K,01,02,03,04,05",1909/07/01 00:00:00.000,Open,K157,850 KENT AVENUE,"995342","192631",-73.959998999999996,40.695397000000000,"303","33","123700","3018970013",BK75,Bedford,"14","14",COMMUNITY SCHOOL DISTRICT 14,"WINNICKI, ALICJA",K157
19K158,K158,P.S. 158 Warwick,331900010158,DOE,General Academic,Elementary,"PK,0K,01,02,03,04,05,SE","PK,0K,01,02,03,04,05",1909/07/01 00:00:00.000,Open,K158,400 ASHFORD STREET,"1016091","184340",-73.885214000000005,40.672590000000000,"305","37","115000","3040150001",BK82,East New York,"19","19",COMMUNITY SCHOOL DISTRICT 19,THOMAS MCBRYDE JR,K158
19K159,K159,P.S. 159 Isaac Pitkin,331900010159,DOE,General Academic,Elementary,"0K,01,02,03,04,05,SE","0K,01,02,03,04,05",1908/07/01 00:00:00.000,Open,K159,2781 PITKIN AVENUE,"1020391","185629",-73.869704999999996,40.676110999999999,"305","42","120000","3042160001",BK82,East New York,"19","19",COMMUNITY SCHOOL DISTRICT 19,THOMAS MCBRYDE JR,K159
20K160,K160,P.S. 160 William T. Sampson,332000010160,DOE,General Academic,Elementary,"0K,01,02,03,04,05,SE","PK,0K,01,02,03,04,05",1909/07/01 00:00:00.000,Open,K160,5105 Fort Hamilton Parkway,"984515","171328",-73.999044999999995,40.636932000000002,"312","44","22000","3056530021",BK88,Borough Park,"20","20",COMMUNITY SCHOOL DISTRICT 20,"COSTANTINO, KARINA",K160
17K161,K161,P.S. 161 The Crown,331700010161,DOE,General Academic,Elementary,"PK,0K,01,02,03,04,05,SE","0K,01,02,03,04,05",1923/07/01 00:00:00.000,Open,K161,330 CROWN STREET,"998331","181834",-73.949242999999996,40.665756999999999,"309","35","31900","3012970026",BK63,Crown Heights South,"17","17",COMMUNITY SCHOOL DISTRICT 17,"ELLIS, CLARENCE",K161
32K162,K162,J.H.S. 162 The Willoughby,333200010162,DOE,General Academic,Junior High-Intermediate-Middle,"06,07,08,SE","06,07,08",1909/07/01 00:00:00.000,Open,K162,1390 WILLOUGHBY AVENUE,"1006529","196799",-73.919642999999994,40.706816000000003,"304","34","44500","3032120001",BK77,Bushwick North,"32","32",COMMUNITY SCHOOL DISTRICT 32,"GORSKI, SHEILA",K162
20K163,K163,P.S. 163 Bath Beach,332000010163,DOE,General Academic,K-8,"0K,01,02,03,04,05,06,07,08,SE","PK,0K,01,02,03,04,05",1909/07/01 00:00:00.000,Open,K807,109 BAY 14TH STREET,"982176","160328",-74.007469000000000,40.606738999999997,"311","43","18000","3063990040",BK27,Bath Beach,"20","20",COMMUNITY SCHOOL DISTRICT 20,"COSTANTINO, KARINA",K163
20K164,K164,P.S. 164 Caesar Rodney,332000010164,DOE,General Academic,Elementary,"PK,0K,01,02,03,04,05,SE","PK,0K,01,02,03,04,05",1910/07/01 00:00:00.000,Open,K164,4211 14 AVENUE,"988208","171390",-73.985738999999995,40.637101000000001,"312","44","23200","3056000001",BK88,Borough Park,"20","20",COMMUNITY SCHOOL DISTRICT 20,"COSTANTINO, KARINA",K164
23K165,K165,P.S. 165 Ida Posner,332300010165,DOE,General Academic,Elementary,"PK,0K,01,02,03,04,05,SE","PK,0K,01,02,03,04,05",1912/07/01 00:00:00.000,Open,K165,76 LOTT AVENUE,"1008961","178674",-73.910938000000002,40.657060999999999,"316","42","89600","3036220023",BK81,Brownsville,"23","23",COMMUNITY SCHOOL DISTRICT 23,"PATE, MIATHERESA",K165
19K166,K166,J.H.S. 166 George Gershwin,331900010166,DOE,General Academic,Junior High-Intermediate-Middle,"08,SE","06,07,08",1956/07/01 00:00:00.000,Closed,K166,800 VAN SICLEN AVE,"1015961","179729",-73.885704000000004,40.659934000000000,"305","42","110400","3043490050",BK82,East New York,"19","19",COMMUNITY SCHOOL DISTRICT 19,"STALLINGS-HARTE, JOYCE",K166
17K167,K167,P.S. 167 The Parkway,331700010167,DOE,General Academic,Elementary,,"PK,0K,01,02,03,04,05",1911/07/01 00:00:00.000,Closed,K167,1025 EASTERN PARKWAY,"1002471","183221",-73.934315999999995,40.669556999999998,"308","35","35300","3013890035",BK61,Crown Heights North,"17","17",COMMUNITY SCHOOL DISTRICT 17,"ELLIS, CLARENCE",K167
32K168,K168,The Brooklyn School for Math and Research,333200011168,DOE,General Academic,High school,"09,10,11,12,SE","09,10,11,12",2011/07/01 00:00:00.000,Open,K480,400 IRVING AVENUE,"1008721","193027",-73.911750999999995,40.696457000000002,"304","37","43500","3033650098",BK77,Bushwick North,"32","32",NULL,NULL,K168
15K169,K169,P.S. 169 Sunset Park,331500010169,DOE,General Academic,Elementary,"0K,01,02,03,04,05,SE","0K,01,02,03,04,05",1915/07/01 00:00:00.000,Open,K169,4305 7 AVENUE,"983778","174568",-74.001700000000000,40.645825000000002,"307","38","9200","3007320001",BK34,Sunset Park East,"15","15",COMMUNITY SCHOOL DISTRICT 15,"SKOP, ANITA",K169
20K170,K170,Ralph A. Fabrizio School,332000010170,DOE,General Academic,Elementary,"0K,01,02,03,04,05,SE","0K,01,02,03,04,05",1915/07/01 00:00:00.000,Open,K170,619 72ND STREET,"979054","168939",-74.018719000000004,40.630372999999999,"310","43","13400","3058990001",BK31,Bay Ridge,"20","20",COMMUNITY SCHOOL DISTRICT 20,"COSTANTINO, KARINA",K170
20K170,K170,Ralph A. Fabrizio School,332000010170,DOE,General Academic,Elementary,"0K,01,02,03,04,05,SE","0K,01,02,03,04,05",1915/07/01 00:00:00.000,Open,K170,619 72ND STREET,"979054","168939",-74.018719000000004,40.630372999999999,"310","43","13400","3058990001",BK31,Bay Ridge,"20","20",COMMUNITY SCHOOL DISTRICT 20,"COSTANTINO, KARINA",K170
19K171,K171,I.S. 171 Abraham Lincoln,331900010171,DOE,General Academic,Junior High-Intermediate-Middle,"06,07,08,SE","06,07,08",1912/07/01 00:00:00.000,Open,K171,528 RIDGEWOOD AVENUE,"1020461","189178",-73.869433999999998,40.685851999999997,"305","37","118400","3041340020",BK83,Cypress Hills-City Line,"19","19",COMMUNITY SCHOOL DISTRICT 19,THOMAS MCBRYDE JR,K171
15K172,K172,P.S. 172 Beacon School of Excellence,331500010172,DOE,General Academic,Elementary,"PK,0K,01,02,03,04,05,06,SE","PK,0K,01,02,03,04,05",1914/07/01 00:00:00.000,Open,K172,825 4 AVENUE,"984197","178888",-74.000191000000001,40.657682000000001,"307","38","10100","3006690001",BK32,Sunset Park West,"15","15",COMMUNITY SCHOOL DISTRICT 15,"SKOP, ANITA",K172
19K174,K174,P.S. 174 Dumont,331900010174,DOE,General Academic,K-8,"05,SE","PK,0K,01,02,03,04,05,06,07,08",1913/07/01 00:00:00.000,Closed,K174,574 DUMONT AVENUE,"1012657","181733",-73.897604000000001,40.665446000000003,"305","42","113000","3038020015",BK85,East New York (Pennsylvania Ave),"19","19",COMMUNITY SCHOOL DISTRICT 19,"STALLINGS-HARTE, JOYCE",K174
20K176,K176,P.S. 176 Ovington,332000010176,DOE,General Academic,Elementary,"0K,01,02,03,04,05,SE","0K,01,02,03,04,05",1914/07/01 00:00:00.000,Open,K176,1225 69 STREET,"982805","166921",-74.005205000000004,40.624834999999997,"310","43","19600","3057740001",BK30,Dyker Heights,"20","20",COMMUNITY SCHOOL DISTRICT 20,"COSTANTINO, KARINA",K176
21K177,K177,P.S. 177 The Marlboro,332100010177,DOE,General Academic,Elementary,"PK,0K,01,02,03,04,05,SE","PK,0K,01,02,03,04,05",1924/07/01 00:00:00.000,Open,K177,346 AVENUE P,"991351","160850",-73.974424999999997,40.608168999999997,"311","44","42400","3066310001",BK29,Bensonhurst East,"21","21",COMMUNITY SCHOOL DISTRICT 21,"DIMOLA, ISABEL",K177
23K178,K178,P.S. 178 Saint Clair Mckelway,332300010178,DOE,General Academic,K-8,"PK,0K,01,02,03,04,05,06,07,08,SE","PK,0K,01,02,03,04,05,06,07,08",1915/07/01 00:00:00.000,Open,K178,2163 DEAN STREET,"1007734","185347",-73.915336999999994,40.675379999999997,"316","41","30300","3014400056",BK79,Ocean Hill,"23","23",COMMUNITY SCHOOL DISTRICT 23,"PATE, MIATHERESA",K178
20K179,K179,P.S. 179 Kensington,332000010179,DOE,General Academic,Elementary,"PK,0K,01,02,03,04,05,SE","PK,0K,01,02,03,04,05",1915/07/01 00:00:00.000,Open,K179,202 AVENUE C,"990561","172493",-73.977260000000001,40.640127000000000,"312","39","48800","3053710001",BK41,Kensington-Ocean Parkway,"20","20",COMMUNITY SCHOOL DISTRICT 20,"COSTANTINO, KARINA",K179
20K180,K180,The SEEALL Academy,332000010180,DOE,General Academic,K-8,"PK,0K,01,02,03,04,05,06,07,08,SE","PK,0K,01,02,03,04,05,06,07,08",1925/07/01 00:00:00.000,Open,K180,5601 16 AVENUE,"987234","167511",-73.989249999999998,40.626454000000003,"312","44","47000","3054920001",BK88,Borough Park,"20","20",COMMUNITY SCHOOL DISTRICT 20,"COSTANTINO, KARINA",K180
17K181,K181,P.S. 181 Brooklyn,331700010181,DOE,General Academic,K-8,"PK,0K,01,02,03,04,05,06,07,08,SE","PK,0K,01,02,03,04,05,06,07,08",1922/07/01 00:00:00.000,Open,K181,1023 NEW YORK AVENUE,"999267","175444",-73.945882999999995,40.648217000000002,"317","45","85600","3049040010",BK91,East Flatbush-Farragut,"17","17",COMMUNITY SCHOOL DISTRICT 17,"ELLIS, CLARENCE",K181
84K182,K182,Success Academy Charter School - Williamsburg,331400861024,Charter,General Academic,Elementary,"0K,01,02,03,04,05,06,08","0K,01,02,03,04,05,06,07,08",2012/07/01 00:00:00.000,Open,K050,183 SOUTH  3 STREET,"995301","198649",-73.960137000000003,40.711914999999998,"301","34","52300","3024190001",BK73,North Side-South Side,"14","84",OFFICE OF CHARTER SCHOOLS,NULL,K182
23K183,K183,P.S. 183 Daniel Chappie James,332300010183,DOE,General Academic,K-8,NULL,"0K,01,02,03,04,05,06,08",1923/07/01 00:00:00.000,Closed,K183,76 RIVERDALE AVENUE,"1008129","179818",-73.913899999999998,40.660200000000003,"316","42","89600","3035970011",BK81,Brownsville,"23","23",COMMUNITY SCHOOL DISTRICT 23,Donald Conyers,K183
23K184,K184,P.S. 184 Newport,332300010184,DOE,General Academic,K-8,"PK,0K,01,02,03,04,05,06,07,08,SE","PK,0K,01,02,03,04,05,06,07,08,SE",1923/07/01 00:00:00.000,Open,K184,273 NEWPORT STREET,"1010606","179887",-73.905004000000005,40.660384999999998,"316","42","91800","3036060001",BK81,Brownsville,"23","23",COMMUNITY SCHOOL DISTRICT 23,"PATE, MIATHERESA",K184
20K185,K185,P.S. 185 Walter Kassenbrock,332000010185,DOE,General Academic,Elementary,"0K,01,02,03,04,05,SE","0K,01,02,03,04,05",1921/07/01 00:00:00.000,Open,K185,8601 RIDGE BOULEVARD,"974970","166472",-74.033428999999998,40.623598000000001,"310","43","6000","3060430001",BK31,Bay Ridge,"20","20",COMMUNITY SCHOOL DISTRICT 20,"COSTANTINO, KARINA",K185
20K186,K186,P.S. 186 Dr. Irving A Gladstone,332000010186,DOE,General Academic,Elementary,"0K,01,02,03,04,05,SE","PK,0K,01,02,03,04,05",1923/07/01 00:00:00.000,Open,K186,7601 19 AVENUE,"985844","161850",-73.994258000000002,40.610917000000001,"311","47","27400","3062390001",BK28,Bensonhurst West,"20","20",COMMUNITY SCHOOL DISTRICT 20,"COSTANTINO, KARINA",K186
20K187,K187,The Christa McAuliffe School\I.S. 187,332000010187,DOE,General Academic,Junior High-Intermediate-Middle,"06,07,08,SE","06,07,08",1994/04/12 00:00:00.000,Open,K486,1171 65 STREET,"983172","168048",-74.003883000000002,40.627929000000002,"310","38","21200","3057450029",BK30,Dyker Heights,"20","20",COMMUNITY SCHOOL DISTRICT 20,"COSTANTINO, KARINA",K187
21K188,K188,P.S. 188 Michael E. Berdy,332100010188,DOE,General Academic,Elementary,"PK,0K,01,02,03,04,05,SE","PK,0K,01,02,03,04,05",1924/07/01 00:00:00.000,Open,K188,3314 NEPTUNE AVENUE,"984114","149396",-74.000489000000002,40.576732999999997,"313","47","32800","3070060001",BK21,Seagate-Coney Island,"21","21",COMMUNITY SCHOOL DISTRICT 21,"DIMOLA, ISABEL",K188
17K189,K189,P.S. 189 The Bilingual Center,331700010189,DOE,General Academic,K-8,"0K,01,02,03,04,05,06,07,08,SE","0K,01,02,03,04,05,06,07,08",1923/07/01 00:00:00.000,Open,K189,1100 EAST NEW YORK AVENUE,"1004936","181646",-73.925434999999993,40.665227999999999,"317","41","89200","3045990001",BK81,Brownsville,"17","17",COMMUNITY SCHOOL DISTRICT 17,"ELLIS, CLARENCE",K189
19K190,K190,P.S. 190 Sheffield,331900010190,DOE,General Academic,Elementary,"PK,0K,01,02,03,04,05,SE","PK,0K,01,02,03,04,05",1924/07/01 00:00:00.000,Open,K190,590 SHEFFIELD AVENUE,"1013415","180567",-73.894876999999994,40.662242999999997,"305","42","112800","3038380018",BK85,East New York (Pennsylvania Ave),"19","19",COMMUNITY SCHOOL DISTRICT 19,THOMAS MCBRYDE JR,K190
23K332,K332,P.S. 332 Charles H. Houston,332300010332,DOE,General Academic,K-8,"05,SE","PK,0K,01,02,03,04,05,06,07,08",1967/07/01 00:00:00.000,Closed,K332,51 CHRISTOPHER AVENUE,"1010320","184197",-73.906018000000003,40.672215999999999,"316","37","90800","3036930001",BK81,Brownsville,"23","23",COMMUNITY SCHOOL DISTRICT 23,"DEGOVIA, MAURICIERE",K332
17K191,K191,P.S. 191 Paul Robeson,331700010191,DOE,General Academic,Elementary,"PK,0K,01,02,03,04,05,SE","PK,0K,01,02,03,04,05",1938/07/01 00:00:00.000,Open,K191,1600 PARK PLACE,"1005297","184015",-73.924126999999999,40.671729999999997,"308","41","35900","3013750012",BK61,Crown Heights North,"17","17",COMMUNITY SCHOOL DISTRICT 17,"ELLIS, CLARENCE",K191
20K192,K192,P.S. 192 - The Magnet School for Math and Science,332000010192,DOE,General Academic,K-8,"PK,0K,01,02,03,04,05,06,07,08,SE","PK,0K,01,02,03,04,05,06,07,08",1924/07/01 00:00:00.000,Open,K192,4715 18 AVENUE,"989929","168366",-73.979540000000000,40.628799999999998,"312","44","47600","3054450001",BK88,Borough Park,"20","20",COMMUNITY SCHOOL DISTRICT 20,"COSTANTINO, KARINA",K192
22K193,K193,P.S. 193 Gil Hodges,332200010193,DOE,General Academic,Elementary,"PK,0K,01,02,03,04,05,SE","PK,0K,01,02,03,04,05",1924/07/01 00:00:00.000,Open,K193,2515 AVENUE L,"998041","165921",-73.950321000000002,40.622079999999997,"314","45","75400","3076250001",BK43,Midwood,"22","22",COMMUNITY SCHOOL DISTRICT 22,"BOVE, JULIA",K193
22K194,K194,P.S. 194 Raoul Wallenberg,332200010194,DOE,General Academic,Elementary,"PK,0K,01,02,03,04,05,SE","PK,0K,01,02,03,04,05",1929/07/01 00:00:00.000,Open,K194,3117 AVENUE W,"1002533","157176",-73.934162999999998,40.598069000000002,"315","46","57000","3073930001",BK17,Sheepshead Bay-Gerritsen Beach-Manhattan Beach,"22","22",COMMUNITY SCHOOL DISTRICT 22,"BOVE, JULIA",K194
22K195,K195,P.S. 195 Manhattan Beach,332200010195,DOE,General Academic,Elementary,"PK,0K,01,02,03,04,05","PK,0K,01,02,03,04,05",1949/07/01 00:00:00.000,Open,K195,131 IRWIN STREET,"999945","150650",-73.943498000000005,40.580160999999997,"315","48","62000","3087520035",BK17,Sheepshead Bay-Gerritsen Beach-Manhattan Beach,"22","22",COMMUNITY SCHOOL DISTRICT 22,"BOVE, JULIA",K195
14K196,K196,P.S. 196 Ten Eyck,331400010196,DOE,General Academic,Elementary,"PK,0K,01,02,03,04,05,SE","PK,0K,01,02,03,04,05",1924/07/01 00:00:00.000,Open,K196,207 BUSHWICK AVENUE,"1001055","197519",-73.939385000000001,40.708804000000001,"301","34","48500","3030460001",BK78,Bushwick South,"14","14",COMMUNITY SCHOOL DISTRICT 14,"WINNICKI, ALICJA",K196
22K197,K197,P.S. 197 - The Kings Highway Academy,332200010197,DOE,General Academic,Elementary,"PK,0K,01,02,03,04,05,SE","PK,0K,01,02,03,04,05",1925/07/01 00:00:00.000,Open,K197,1599 EAST  22 STREET,"997744","162372",-73.951397999999998,40.612338999999999,"314","48","54600","3067690018",BK43,Midwood,"22","22",COMMUNITY SCHOOL DISTRICT 22,"BOVE, JULIA",K197
22K198,K198,P.S. 198 Brooklyn,332200010198,DOE,General Academic,Elementary,"PK,0K,01,02,03,04,05,SE","PK,0K,01,02,03,04,05",1931/07/01 00:00:00.000,Open,K198,4105 FARRAGUT ROAD,"1001712","171578",-73.937083000000001,40.637600999999997,"317","45","83600","3049880066",BK91,East Flatbush-Farragut,"22","22",COMMUNITY SCHOOL DISTRICT 22,"BOVE, JULIA",K198
21K199,K199,P.S. 199 Frederick Wachtel,332100010199,DOE,General Academic,Elementary,"PK,0K,01,02,03,04,05,SE","PK,0K,01,02,03,04,05",1930/07/01 00:00:00.000,Open,K199,1100 ELM AVENUE,"994515","163817",-73.963025999999999,40.616309999999999,"314","48","76800","3067400025",BK43,Midwood,"21","21",COMMUNITY SCHOOL DISTRICT 21,"DIMOLA, ISABEL",K199
20K200,K200,P.S. 200 Benson School,332000010200,DOE,General Academic,Elementary,"PK,0K,01,02,03,04,05,SE","PK,0K,01,02,03,04,05",1929/07/01 00:00:00.000,Open,K200,1940 BENSON AVENUE,"983718","158896",-74.001914999999997,40.602809000000001,"311","43","28200","3064070008",BK27,Bath Beach,"20","20",COMMUNITY SCHOOL DISTRICT 20,"COSTANTINO, KARINA",K200
20K201,K201,J.H.S. 201 The Dyker Heights,332000010201,DOE,General Academic,Junior High-Intermediate-Middle,"06,07,08,SE","06,07,08",1925/07/01 00:00:00.000,Open,K201,8010 12 AVENUE,"980433","164811",-74.013749000000004,40.619042999999998,"310","43","16600","3062780022",BK30,Dyker Heights,"20","20",COMMUNITY SCHOOL DISTRICT 20,"COSTANTINO, KARINA",K201
19K202,K202,P.S. 202 Ernest S. Jenkyns,331900010202,DOE,General Academic,Elementary,"PK,0K,01,02,03,04,05,SE","0K,01,02,03,04,05",1925/07/01 00:00:00.000,Open,K202,982 HEGEMAN AVENUE,"1018627","181876",-73.876084000000006,40.665816999999997,"305","42","111600","3044770001",BK82,East New York,"19","19",COMMUNITY SCHOOL DISTRICT 19,THOMAS MCBRYDE JR,K202
22K203,K203,P.S. 203 Floyd Bennett School,332200010203,DOE,General Academic,Elementary,"PK,0K,01,02,03,04,05,SE","PK,0K,01,02,03,04,05",1927/07/01 00:00:00.000,Open,K203,5101 AVENUE M,"1004867","165936",-73.925731999999996,40.622107999999997,"318","46","68000","3078490001",BK58,Flatlands,"22","22",COMMUNITY SCHOOL DISTRICT 22,"BOVE, JULIA",K203
20K204,K204,P.S. 204 Vince Lombardi,332000010204,DOE,General Academic,Elementary,"PK,0K,01,02,03,04,05,SE","PK,0K,01,02,03,04,05",1929/07/01 00:00:00.000,Open,K204,8101 15 AVENUE,"982546","162804",-74.006136999999995,40.613534999999999,"311","43","18400","3062940001",BK28,Bensonhurst West,"20","20",COMMUNITY SCHOOL DISTRICT 20,"COSTANTINO, KARINA",K204
20K205,K205,P.S. 205 Clarion,332000010205,DOE,General Academic,Elementary,"PK,0K,01,02,03,04,05,SE","PK,0K,01,02,03,04,05",1925/07/01 00:00:00.000,Open,K205,6701 20 AVENUE,"987917","163242",-73.986791999999994,40.614736999999998,"311","47","25600","3055710001",BK28,Bensonhurst West,"20","20",COMMUNITY SCHOOL DISTRICT 20,"COSTANTINO, KARINA",K205
22K206,K206,P.S. 206 Joseph F Lamb,332200010206,DOE,General Academic,K-8,"0K,01,02,03,04,05,06,07,08,SE","PK,0K,01,02,03,04,05,06,07,08",1925/07/01 00:00:00.000,Open,K206,2200 GRAVESEND NECK ROAD,"998565","156739",-73.948453000000001,40.596876000000002,"315","48","59401","3073810201",BK17,Sheepshead Bay-Gerritsen Beach-Manhattan Beach,"22","22",COMMUNITY SCHOOL DISTRICT 22,"BOVE, JULIA",K206
22K207,K207,P.S. 207 Elizabeth G. Leary,332200010207,DOE,General Academic,K-8,"PK,0K,01,02,03,04,05,06,07,08,SE","PK,0K,01,02,03,04,05,06,07,08",1926/07/01 00:00:00.000,Open,K207,4011 FILLMORE AVENUE,"1003550","162974",-73.930485000000004,40.613981000000003,"318","46","65200","3084840001",BK45,Georgetown-Marine Park-Bergen Beach-Mill Basin,"22","22",COMMUNITY SCHOOL DISTRICT 22,"BOVE, JULIA",K207
18K208,K208,P.S. 208 Elsa Ebeling,331800010208,DOE,General Academic,Elementary,"PK,0K,01,02,03,04,05,SE","PK,0K,01,02,03,04,05",1927/07/01 00:00:00.000,Open,K208,4801 AVENUE D,"1003427","173437",-73.930897999999999,40.642699999999998,"317","45","84000","3047690025",BK91,East Flatbush-Farragut,"18","18",COMMUNITY SCHOOL DISTRICT 18,"WILKINS, BEVERLY",K208
21K209,K209,P.S. 209 Margaret Mead,332100010209,DOE,General Academic,K-8,"PK,0K,01,02,03,04,05,06,07,08,SE","PK,0K,01,02,03,04,05,06,07,08",1930/07/01 00:00:00.000,Open,K209,2609 EAST  7 STREET,"995029","153066",-73.961190999999999,40.586799999999997,"313","48","37000","3072440001",BK19,Brighton Beach,"21","21",COMMUNITY SCHOOL DISTRICT 21,"DIMOLA, ISABEL",K209
18K211,K211,I.S. 211 John Wilson,331800010211,DOE,General Academic,Junior High-Intermediate-Middle,"06,07,08,SE","06,07,08",1958/07/01 00:00:00.000,Open,K211,1001 EAST 100 STREET,"1013327","173531",-73.895223999999999,40.642930999999997,"318","46","98800","3082270001",BK50,Canarsie,"18","18",COMMUNITY SCHOOL DISTRICT 18,"WILKINS, BEVERLY",K211
21K212,K212,P.S. 212 Lady Deborah Moody,332100010212,DOE,General Academic,Elementary,"PK,0K,01,02,03,04,05,06,SE","PK,0K,01,02,03,04,05",1925/07/01 00:00:00.000,Open,K212,87 BAY  49 STREET,"988314","153360",-73.985367999999994,40.587612000000000,"313","47","31400","3069170001",BK26,Gravesend,"21","21",COMMUNITY SCHOOL DISTRICT 21,"DIMOLA, ISABEL",K212
19K213,K213,P.S. 213 New Lots,331900010213,DOE,General Academic,Elementary,"PK,0K,01,02,03,04,05,SE","PK,0K,01,02,03,04,05",1939/07/01 00:00:00.000,Open,K213,580 HEGEMAN AVENUE,"1014778","179695",-73.889967999999996,40.659844999999997,"305","42","110400","3043240001",BK82,East New York,"19","19",COMMUNITY SCHOOL DISTRICT 19,THOMAS MCBRYDE JR,K213
19K214,K214,P.S. 214 Michael Friedsam,331900010214,DOE,General Academic,Elementary,"PK,0K,01,02,03,04,05,SE","PK,0K,01,02,03,04,05",1925/07/01 00:00:00.000,Open,K214,2944 PITKIN AVENUE,"1022262","185548",-73.862960999999999,40.675880999999997,"305","37","120200","3042430001",BK83,Cypress Hills-City Line,"19","19",COMMUNITY SCHOOL DISTRICT 19,THOMAS MCBRYDE JR,K214
21K215,K215,P.S. 215 Morris H. Weiss,332100010215,DOE,General Academic,Elementary,"PK,0K,01,02,03,04,05,SE","PK,0K,01,02,03,04,05",1925/07/01 00:00:00.000,Open,K215,415 AVENUE S,"992533","158866",-73.970170999999993,40.602722000000000,"315","47","41401","3066810169",BK25,Homecrest,"21","21",COMMUNITY SCHOOL DISTRICT 21,"DIMOLA, ISABEL",K215
21K216,K216,P.S. 216 Arturo Toscanini,332100010216,DOE,General Academic,Elementary,"PK,0K,01,02,03,04,05,SE","PK,0K,01,02,03,04,05",1925/07/01 00:00:00.000,Open,K216,350 AVENUE X,"992680","154231",-73.969646999999995,40.590000000000003,"315","47","37401","3071960001",BK26,Gravesend,"21","21",COMMUNITY SCHOOL DISTRICT 21,"DIMOLA, ISABEL",K216
22K217,K217,P.S. 217 Colonel David Marcus School,332200010217,DOE,General Academic,Elementary,"PK,0K,01,02,03,04,05,SE","PK,0K,01,02,03,04,05",1925/07/01 00:00:00.000,Open,K217,1100 NEWKIRK AVENUE,"993564","170073",-73.966442000000001,40.633482000000001,"314","40","52600","3052320001",BK42,Flatbush,"22","22",COMMUNITY SCHOOL DISTRICT 22,"BOVE, JULIA",K217
19K218,K218,J.H.S. 218 James P. Sinnott,331900010218,DOE,General Academic,Junior High-Intermediate-Middle,"06,07,08,SE","06,07,08",1964/07/01 00:00:00.000,Open,K218,370 FOUNTAIN AVENUE,"1019054","183408",-73.874537000000004,40.670020000000001,"305","42","111800","3042780001",BK82,East New York,"19","19",COMMUNITY SCHOOL DISTRICT 19,THOMAS MCBRYDE JR,K218
18K219,K219,P.S. 219 Kennedy-King,331800010219,DOE,General Academic,Elementary,"PK,0K,01,02,03,04,05,SE","PK,0K,01,02,03,04,05",1927/07/01 00:00:00.000,Open,K219,1060 CLARKSON AVENUE,"1005809","179317",-73.922296000000003,40.658833999999999,"317","41","88600","3046480001",BK96,Rugby-Remsen Village,"18","18",COMMUNITY SCHOOL DISTRICT 18,"WILKINS, BEVERLY",K219
20K220,K220,J.H.S. 220 John J. Pershing,332000010220,DOE,General Academic,Junior High-Intermediate-Middle,"06,07,08,SE","06,07,08",1925/07/01 00:00:00.000,Open,K220,4812 9TH AVENUE,"983903","172809",-74.001249999999999,40.640996999999999,"312","38","10800","3007780023",BK34,Sunset Park East,"20","20",COMMUNITY SCHOOL DISTRICT 20,"COSTANTINO, KARINA",K220
17K221,K221,P.S. 221 Toussaint L'Ouverture,331700010221,DOE,General Academic,Elementary,"PK,0K,01,02,03,04,05,SE","PK,0K,01,02,03,04,05",1940/07/01 00:00:00.000,Open,K221,791 EMPIRE BOULEVARD,"1002074","181183",-73.935753000000005,40.663964000000000,"309","35","35500","3014230014",BK63,Crown Heights South,"17","17",COMMUNITY SCHOOL DISTRICT 17,"ELLIS, CLARENCE",K221
22K222,K222,P.S. 222 Katherine R. Snyder,332200010222,DOE,General Academic,Elementary,"0K,01,02,03,04,05,SE","PK,0K,01,02,03,04,05",1929/07/01 00:00:00.000,Open,K222,3301 QUENTIN ROAD,"1001129","162981",-73.939205000000001,40.614004999999999,"318","46","64600","3077060001",BK45,Georgetown-Marine Park-Bergen Beach-Mill Basin,"22","22",COMMUNITY SCHOOL DISTRICT 22,"BOVE, JULIA",K222
20K223,K223,J.H.S. 223 The Montauk,332000010223,DOE,General Academic,Junior High-Intermediate-Middle,"06,07,08,SE","06,07,08",1930/07/01 00:00:00.000,Open,K223,4200 16 AVENUE,"989128","170661",-73.982423999999995,40.635100000000001,"312","44","23000","3053620021",BK88,Borough Park,"20","20",COMMUNITY SCHOOL DISTRICT 20,"COSTANTINO, KARINA",K223
19K224,K224,P.S. 224 Hale A. Woodruff,331900010224,DOE,General Academic,Elementary,"PK,0K,01,02,03,04,05,SE","PK,0K,01,02,03,04,05",1930/07/01 00:00:00.000,Open,K224,757 WORTMAN AVENUE,"1021275","181270",-73.866541999999995,40.664143000000003,"305","42","122000","3045290133",BK82,East New York,"19","19",COMMUNITY SCHOOL DISTRICT 19,THOMAS MCBRYDE JR,K224
21K225,K225,P.S. K225 - The Eileen E. Zaglin,332100010225,DOE,General Academic,K-8,"PK,0K,01,02,03,04,05,06,07,08,SE","PK,0K,01,02,03,04,05,06,07,08",1928/07/01 00:00:00.000,Open,K225,1075 OCEAN VIEW AVENUE,"996512","150684",-73.955855999999997,40.580260000000003,"313","48","61004","3087120056",BK19,Brighton Beach,"21","21",COMMUNITY SCHOOL DISTRICT 21,"DIMOLA, ISABEL",K225
21K226,K226,P.S. 226 Alfred De B. Mason,332100010226,DOE,General Academic,K-8,"PK,0K,01,02,03,04,05,06,07,08,SE","PK,0K,01,02,03,04,05,06,07,08",1930/07/01 00:00:00.000,Open,K226,6006 23 AVENUE,"990608","163486",-73.977098999999995,40.615405000000003,"312","44","44600","3065490024",BK88,Borough Park,"21","21",COMMUNITY SCHOOL DISTRICT 21,"DIMOLA, ISABEL",K226
20K227,K227,J.H.S. 227 Edward B. Shallow,332000010227,DOE,General Academic,Junior High-Intermediate-Middle,"06,07,08,SE","06,07,08",1930/07/01 00:00:00.000,Open,K227,6500 16 AVENUE,"985371","165925",-73.995960999999994,40.622101999999998,"311","38","25000","3055510018",BK28,Bensonhurst West,"20","20",COMMUNITY SCHOOL DISTRICT 20,"COSTANTINO, KARINA",K227
21K228,K228,I.S. 228 David A. Boody,332100010228,DOE,General Academic,Junior High-Intermediate-Middle,"06,07,08,SE","06,07,08",1930/07/01 00:00:00.000,Open,K228,228 AVENUE S,"990692","158114",-73.976800999999995,40.600659999999998,"311","47","41000","3070840001",BK29,Bensonhurst East,"21","21",COMMUNITY SCHOOL DISTRICT 21,"DIMOLA, ISABEL",K228
20K229,K229,P.S. 229 Dyker,332000010229,DOE,General Academic,K-8,"PK,0K,01,02,03,04,05,06,07,08,SE","0K,01,02,03,04,05,06,07,08",1932/07/01 00:00:00.000,Open,K229,1400 BENSON AVENUE,"980478","161637",-74.013585000000006,40.610331000000002,"311","43","17000","3063910024",BK27,Bath Beach,"20","20",COMMUNITY SCHOOL DISTRICT 20,"COSTANTINO, KARINA",K229
15K230,K230,P.S. 230 Doris L. Cohen,331500010230,DOE,General Academic,Elementary,"PK,0K,01,02,03,04,05,SE","PK,0K,01,02,03,04,05",1930/07/01 00:00:00.000,Open,K230,1 ALBEMARLE ROAD,"989657","174490",-73.980514999999997,40.645609000000000,"312","39","49800","3053230032",BK41,Kensington-Ocean Parkway,"15","15",COMMUNITY SCHOOL DISTRICT 15,"SKOP, ANITA",K230
75K231,K231,P.S. K231,307500013231,DOE,Special Education,K-8,"0K,01,02,03,04,05,06,07,08,09,SE","01,02,03,04,05,06,07,08,09,SE",1995/09/21 00:00:00.000,Open,K180,5601 16 AVENUE,"987234","167511",-73.989249999999998,40.626454000000003,"312","44","47000","3054920001",BK88,Borough Park,"20","75",CITYWIDE SPECIAL EDUCATION,"LOUISSAINT, KETLER",K231
18K232,K232,I.S. 232 The Winthrop,331800010232,DOE,General Academic,Junior High-Intermediate-Middle,"08,SE","06,07,08",1930/07/01 00:00:00.000,Closed,K232,905 WINTHROP STREET,"1003928","179168",-73.929000000000002,40.658400000000000,"317","41","88000","3046060025",BK60,Prospect Lefferts Gardens-Wingate,"18","18",COMMUNITY SCHOOL DISTRICT 18,Beverly Wilkins,K232
18K233,K233,P.S. 233 Langston Hughes,331800010233,DOE,General Academic,Elementary,"PK,0K,01,02,03,04,05,SE","PK,0K,01,02,03,04,05",1930/07/01 00:00:00.000,Open,K233,9301 AVENUE B,"1008035","176699",-73.914282000000000,40.651642000000002,"317","42","93000","3047530001",BK96,Rugby-Remsen Village,"18","18",COMMUNITY SCHOOL DISTRICT 18,"WILKINS, BEVERLY",K233
21K400,K400,Lafayette High School,332100011400,DOE,General Academic,High school,"09,10,11,12","09,10,11,12",1939/07/01 00:00:00.000,Closed,K400,2630 BENSON AVENUE,"988051","155333",-73.986312999999996,40.593027999999997,"313","47","30600","3068830001",BK26,Gravesend,"21","21",COMMUNITY SCHOOL DISTRICT 21,NULL,K400
22K234,K234,J.H.S. 234 Arthur W. Cunningham,332200010234,DOE,General Academic,Junior High-Intermediate-Middle,"06,07,08,SE","06,07,08",1937/07/01 00:00:00.000,Open,K234,1875 EAST  17 STREET,"996685","159496",-73.955217000000005,40.604447000000000,"315","48","55800","3068210244",BK44,Madison,"22","22",COMMUNITY SCHOOL DISTRICT 22,"BOVE, JULIA",K234
18K235,K235,P.S. 235 Janice Marie Knight School,331800010235,DOE,General Academic,K-8,"PK,0K,01,02,03,04,05,06,07,08,SE","PK,0K,01,02,03,04,05,06,07,08",1930/07/01 00:00:00.000,Open,K235,525 LENOX ROAD,"1000642","178039",-73.940922000000000,40.655337000000003,"317","41","81400","3048440001",BK91,East Flatbush-Farragut,"18","18",COMMUNITY SCHOOL DISTRICT 18,"WILKINS, BEVERLY",K235
22K236,K236,P.S. 236 Mill Basin,332200010236,DOE,General Academic,Elementary,"PK,0K,01,02,03,04,05,SE","PK,0K,01,02,03,04,05",1933/07/01 00:00:00.000,Open,K236,6302 AVENUE U,"1008680","163530",-73.912004999999994,40.615493999999998,"318","46","69800","3084640001",BK45,Georgetown-Marine Park-Bergen Beach-Mill Basin,"22","22",COMMUNITY SCHOOL DISTRICT 22,"BOVE, JULIA",K236
21K238,K238,P.S. 238 Anne Sullivan,332100010238,DOE,General Academic,K-8,"PK,0K,01,02,03,04,05,06,07,08,SE","PK,0K,01,02,03,04,05,06,07,08",1931/07/01 00:00:00.000,Open,K238,1633 EAST  8 STREET,"994083","161081",-73.964585999999997,40.608801000000000,"315","44","42000","3066400013",BK25,Homecrest,"21","21",COMMUNITY SCHOOL DISTRICT 21,"DIMOLA, ISABEL",K238
21K239,K239,Mark Twain I.S. 239 for the Gifted & Talented,332100010239,DOE,General Academic,Junior High-Intermediate-Middle,"06,07,08,SE","06,07,08",1937/07/01 00:00:00.000,Open,K239,2401 NEPTUNE AVENUE,"986348","150091",-73.992446999999999,40.578640000000000,"313","47","33000","3069650140",BK21,Seagate-Coney Island,"21","21",COMMUNITY SCHOOL DISTRICT 21,"DIMOLA, ISABEL",K239
22K240,K240,Andries Hudde,332200010240,DOE,General Academic,Junior High-Intermediate-Middle,"06,07,08,SE","06,07,08",1951/07/01 00:00:00.000,Open,K240,2500 NOSTRAND AVENUE,"999008","166544",-73.946836000000005,40.623787999999998,"314","45","74800","3076290030",BK43,Midwood,"22","22",COMMUNITY SCHOOL DISTRICT 22,"BOVE, JULIA",K240
17K241,K241,P.S. 241 Emma L. Johnston,331700010241,DOE,General Academic,Elementary,"PK,0K,01,02,03,04,05,SE","PK,0K,01,02,03,04,05",1931/07/01 00:00:00.000,Open,K241,976 PRESIDENT STREET,"995090","182982",-73.960924000000006,40.668913000000003,"309","35","21300","3011880001",BK63,Crown Heights South,"17","17",COMMUNITY SCHOOL DISTRICT 17,"ELLIS, CLARENCE",K241
16K243,K243,P.S. 243K- The Weeksville School,331600010243,DOE,General Academic,Elementary,"PK,0K,01,02,03,04,05,SE","PK,0K,01,02,03,04,05",1962/07/01 00:00:00.000,Open,K243,1580 DEAN STREET,"1002254","185450",-73.935092999999995,40.675674999999998,"308","36","30900","3013470001",BK61,Crown Heights North,"16","16",COMMUNITY SCHOOL DISTRICT 16,"MARTIN, YOLANDA",K243
18K244,K244,P.S. 244 Richard R. Green,331800010244,DOE,General Academic,Elementary,"PK,0K,01,02,03,04,05,SE","PK,0K,01,02,03,04,05",1939/07/01 00:00:00.000,Open,K244,5404 TILDEN AVENUE,"1004898","175315",-73.925591999999995,40.647851000000003,"317","45","94600","3047390001",BK96,Rugby-Remsen Village,"18","18",COMMUNITY SCHOOL DISTRICT 18,"WILKINS, BEVERLY",K244
22K245,K245,P.S. 245,332200010245,DOE,General Academic,Elementary,"PK,0K,01,02,03,04,05,SE","PK,0K,01,02,03,04,05",1999/07/01 00:00:00.000,Open,K735,249 EAST 17TH STREET,"994589","174243",-73.962743000000003,40.644927000000003,"314","40","51200","3051210032",BK42,Flatbush,"22","22",COMMUNITY SCHOOL DISTRICT 22,"BOVE, JULIA",K245
17K246,K246,M.S. 246 Walt Whitman,331700010246,DOE,General Academic,Junior High-Intermediate-Middle,"06,07,08,SE","06,07,08",1939/07/01 00:00:00.000,Open,K246,72 VERONICA PLACE,"997159","175492",-73.953479999999999,40.648352000000003,"317","40","79400","3051100025",BK95,Erasmus,"17","17",COMMUNITY SCHOOL DISTRICT 17,"ELLIS, CLARENCE",K246
20K247,K247,P.S. 247 Brooklyn,332000010247,DOE,General Academic,Elementary,"0K,01,02,03,04,05,SE","PK,0K,01,02,03,04,05",1937/07/01 00:00:00.000,Open,K247,7000 21 AVENUE,"987805","162335",-73.987195000000000,40.612247000000004,"311","47","25800","3061740036",BK28,Bensonhurst West,"20","20",COMMUNITY SCHOOL DISTRICT 20,"COSTANTINO, KARINA",K247
17K249,K249,P.S. 249 The Caton,331700010249,DOE,General Academic,Elementary,"PK,0K,01,02,03,04,05,SE","PK,0K,01,02,03,04,05",1951/07/01 00:00:00.000,Open,K249,18 MARLBOROUGH ROAD,"993558","175912",-73.966455999999994,40.649509000000002,"314","40","50600","3050750001",BK42,Flatbush,"17","17",COMMUNITY SCHOOL DISTRICT 17,"ELLIS, CLARENCE",K249
14K250,K250,P.S. 250 George H. Lindsay,331400010250,DOE,General Academic,Elementary,"PK,0K,01,02,03,04,05,06,SE","PK,0K,01,02,03,04,05",1964/07/01 00:00:00.000,Open,K250,108 MONTROSE AVENUE,"999316","196754",-73.945659000000006,40.706707999999999,"301","34","50500","3030600001",BK90,East Williamsburg,"14","14",COMMUNITY SCHOOL DISTRICT 14,"WINNICKI, ALICJA",K250
79K565,K565,HS Of Redirection,307900013565,DOE,Alternative,High school,NULL,"09,10,11,12",1996/06/05 00:00:00.000,Closed,K175,226 BRISTOL STREET,"1008745","181886",-73.911699999999996,40.665900000000001,"316","41","92400","3035410001",BK81,Brownsville,"23","79",ALTERNATIVE HIGH SCHOOL DISTRICT,NULL,K565
22K251,K251,P.S. 251 Paerdegat,332200010251,DOE,General Academic,Elementary,"PK,0K,01,02,03,04,05,SE","PK,0K,01,02,03,04,05",1952/07/01 00:00:00.000,Open,K251,1037 EAST  54 STREET,"1005374","169522",-73.923894000000004,40.631950000000003,"318","46","72200","3077580001",BK58,Flatlands,"22","22",COMMUNITY SCHOOL DISTRICT 22,"BOVE, JULIA",K251
18K252,K252,I.S. 252 Arthur S. Somers,331800010252,DOE,General Academic,Junior High-Intermediate-Middle,"07,08,SE","06,07,08",1939/07/01 00:00:00.000,Closed,K252,1084 LENOX ROAD,"1006416","179121",-73.920100000000005,40.658299999999997,"317","41","88600","3046690037",BK96,Rugby-Remsen Village,"18","18",COMMUNITY SCHOOL DISTRICT 18,Beverly Wilkins,K252
21K253,K253,P.S. 253,332100010253,DOE,General Academic,Elementary,"PK,0K,01,02,03,04,05,SE","PK,0K,01,02,03,04,05",1938/07/01 00:00:00.000,Open,K253,601 OCEANVIEW AVENUE,"994816","150675",-73.961962000000000,40.580236999999997,"313","48","36400","3086660610",BK19,Brighton Beach,"21","21",COMMUNITY SCHOOL DISTRICT 21,"DIMOLA, ISABEL",K253
22K254,K254,P.S. 254 Dag Hammarskjold,332200010254,DOE,General Academic,Elementary,"0K,01,02,03,04,05,SE","PK,0K,01,02,03,04,05",1938/07/01 00:00:00.000,Open,K254,1801 AVENUE Y,"997706","154635",-73.951549999999997,40.591102999999997,"315","48","59200","3074200026",BK17,Sheepshead Bay-Gerritsen Beach-Manhattan Beach,"22","22",COMMUNITY SCHOOL DISTRICT 22,"BOVE, JULIA",K254
22K255,K255,P.S. 255 Barbara Reing School,332200010255,DOE,General Academic,Elementary,"0K,01,02,03,04,05,SE","PK,0K,01,02,03,04,05",1953/07/01 00:00:00.000,Open,K255,1866 EAST  17 STREET,"996498","159501",-73.955890999999994,40.604461000000001,"315","48","55800","3068210123",BK44,Madison,"22","22",COMMUNITY SCHOOL DISTRICT 22,"BOVE, JULIA",K255
13K256,K256,P.S. 256 Benjamin Banneker,331300010256,DOE,General Academic,Elementary,"PK,0K,01,02,03,04,05,SE","PK,0K,01,02,03,04,05",1959/07/01 00:00:00.000,Open,K256,114 KOSCIUSZKO STREET,"998224","190883",-73.949610000000007,40.690595000000002,"303","36","25300","3017840020",BK75,Bedford,"13","13",COMMUNITY SCHOOL DISTRICT 13,"SAMUELS, KAMAR",K256
14K257,K257,P.S. 257 John F. Hylan,331400010257,DOE,General Academic,Elementary,"PK,0K,01,02,03,04,05,SE","PK,0K,01,02,03,04,05",1962/07/01 00:00:00.000,Open,K257,60 COOK STREET,"1000513","195316",-73.941344999999998,40.702759000000000,"301","34","49100","3031140011",BK90,East Williamsburg,"14","14",COMMUNITY SCHOOL DISTRICT 14,"WINNICKI, ALICJA",K257
13K258,K258,J.H.S. 258 David Ruggles,331300010258,DOE,General Academic,Junior High-Intermediate-Middle,"08,SE","06,07,08,09",1955/07/01 00:00:00.000,Closed,K258,141 MACON STREET,"999381","187596",-73.945400000000006,40.681600000000003,"303","36","26900","3018450001",BK75,Bedford,"13","13",COMMUNITY SCHOOL DISTRICT 13,James Machen,K258
20K259,K259,J.H.S. 259 William McKinley,332000010259,DOE,General Academic,Junior High-Intermediate-Middle,"06,07,08,SE","06,07,08",1939/07/01 00:00:00.000,Open,K259,7305 FT HAMILTON PARKWAY,"980188","167378",-74.014633000000003,40.626089000000000,"310","43","20600","3059230001",BK30,Dyker Heights,"20","20",COMMUNITY SCHOOL DISTRICT 20,"COSTANTINO, KARINA",K259
19K260,K260,P.S. 260 Breuckelen,331900010260,DOE,General Academic,Elementary,"5","PK,0K,01,02,03,04,05,06,SE",1953/07/01 00:00:00.000,Closed,K260,875 WILLIAMS AVENUE,"1013858","177334",-73.893293999999997,40.653368000000000,"318","42","98200","3081580040",BK50,Canarsie,"19","19",COMMUNITY SCHOOL DISTRICT 19,"STALLINGS-HARTE, JOYCE",K260
15K261,K261,P.S. 261 Philip Livingston,331500010261,DOE,General Academic,Elementary,"PK,0K,01,02,03,04,05,SE","PK,0K,01,02,03,04,05",1958/07/01 00:00:00.000,Open,K261,314 PACIFIC STREET,"987393","189649",-73.988667000000007,40.687218000000001,"302","33","4300","3001880014",BK38,DUMBO-Vinegar Hill-Downtown Brooklyn-Boerum Hill,"15","15",COMMUNITY SCHOOL DISTRICT 15,"SKOP, ANITA",K261
16K262,K262,P.S. 262 El Hajj Malik El Shabazz Elementary Schoo,331600010262,DOE,General Academic,Elementary,"PK,0K,01,02,03,04,05,SE","0K,01,02,03,04,05",1961/07/01 00:00:00.000,Open,K262,500 MACON STREET,"1003628","188101",-73.930132000000000,40.682949000000001,"303","36","29700","3016710019",BK61,Crown Heights North,"16","16",COMMUNITY SCHOOL DISTRICT 16,"MARTIN, YOLANDA",K262
20K264,K264,P.S. 264 Bay Ridge Elementary School For The Arts,332000010264,DOE,General Academic,Elementary,"0K,01,02,03,04,05,SE","0K,01,02,03,04,05",2010/07/01 00:00:00.000,Open,K264,371 89th Street,"976076","165534",-74.029443999999998,40.621025000000003,"310","43","6000","3060620141",BK31,Bay Ridge,"20","20",COMMUNITY SCHOOL DISTRICT 20,"COSTANTINO, KARINA",K264
13K265,K265,Dr. Susan S. McKinney Secondary School of the Arts,331300010265,DOE,General Academic,Secondary School,"06,07,08,09,10,11,12,SE","06,07,08,09,10,11,12",1958/07/01 00:00:00.000,Open,K265,101 PARK AVENUE,"990876","193278",-73.976104000000007,40.697177000000003,"302","35","21100","3020280001",BK68,Fort Greene,"13","13",COMMUNITY SCHOOL DISTRICT 13,"SAMUELS, KAMAR",K265
13K266,K266,M.S. K266 - Park Place Community Middle School,331300010266,DOE,General Academic,Junior High-Intermediate-Middle,"06,07,08,SE","06,07,08",2000/06/21 00:00:00.000,Open,K902,62 PARK PLACE,"990727","186586",-73.976647999999997,40.678809000000001,"306","39","12902","3009410050",BK37,Park Slope-Gowanus,"13","13",COMMUNITY SCHOOL DISTRICT 13,"SAMUELS, KAMAR",K266
16K267,K267,"M.S. 267 Math, Science & Technology",331600010267,DOE,General Academic,Junior High-Intermediate-Middle,"06,07,08,SE","06,07,08",1999/07/01 00:00:00.000,Open,K324,800 GATES AVENUE,"1003090","189930",-73.932066000000006,40.687970000000000,"303","36","29300","3016360001",BK35,Stuyvesant Heights,"16","16",COMMUNITY SCHOOL DISTRICT 16,"MARTIN, YOLANDA",K267
18K268,K268,P.S. 268 Emma Lazarus,331800010268,DOE,General Academic,Elementary,"PK,0K,01,02,03,04,05,SE","PK,0K,01,02,03,04,05",1953/07/01 00:00:00.000,Open,K268,133 EAST  53 STREET,"1004349","178801",-73.927560000000000,40.657420999999999,"317","41","86600","3046230028",BK96,Rugby-Remsen Village,"18","18",COMMUNITY SCHOOL DISTRICT 18,"WILKINS, BEVERLY",K268
22K269,K269,P.S. 269 Nostrand,332200010269,DOE,General Academic,Elementary,"03,04,05,SE","03,04,05",1952/07/01 00:00:00.000,Closed,K269,1957 NOSTRAND AVENUE,"998773","171585",-73.947671999999997,40.637625000000000,"317","45","78800","3049940023",BK42,Flatbush,"22","22",COMMUNITY SCHOOL DISTRICT 22,"BOVE, JULIA",K269
13K270,K270,P.S. 270 Johann DeKalb,331300010270,DOE,General Academic,Elementary,"PK,0K,01,02,03,04,05,06,SE","PK,0K,01,02,03,04,05",1959/07/01 00:00:00.000,Open,K270,241 EMERSON PLACE,"995028","191129",-73.961134000000001,40.691274999999997,"302","35","19300","3019230001",BK69,Clinton Hill,"13","13",COMMUNITY SCHOOL DISTRICT 13,"SAMUELS, KAMAR",K270
23K271,K271,I.S. 271 John M. Coleman,332300010271,DOE,General Academic,Junior High-Intermediate-Middle,"08,SE","06,07,08",1963/07/01 00:00:00.000,Closed,K137,121 SARATOGA AVENUE,"1007234","188006",-73.917100000000005,40.682699999999997,"316","41","37300","3015100001",BK79,Ocean Hill,"23","23",COMMUNITY SCHOOL DISTRICT 23,Donald Conyers,K271
18K272,K272,P.S. 272 Curtis Estabrook,331800010272,DOE,General Academic,Elementary,"PK,0K,01,02,03,04,05,SE","PK,0K,01,02,03,04,05",1957/07/01 00:00:00.000,Open,K272,101-24 SEAVIEW AVENUE,"1015787","170842",-73.886373000000006,40.635542000000001,"318","46","103400","3083290250",BK50,Canarsie,"18","18",COMMUNITY SCHOOL DISTRICT 18,"WILKINS, BEVERLY",K272
19K273,K273,P.S. 273 Wortman,331900010273,DOE,General Academic,Elementary,"PK,0K,01,02,03,04,05,SE","0K,01,02,03,04,05",1952/07/01 00:00:00.000,Open,K273,923 JEROME STREET,"1017745","179209",-73.879276000000004,40.658499999999997,"305","42","107800","3044010001",BK82,East New York,"19","19",COMMUNITY SCHOOL DISTRICT 19,THOMAS MCBRYDE JR,K273
32K274,K274,P.S. 274 Kosciusko,333200010274,DOE,General Academic,Elementary,"PK,0K,01,02,03,04,05,SE","PK,0K,01,02,03,04,05",1961/07/01 00:00:00.000,Open,K274,800 BUSHWICK AVENUE,"1004166","192193",-73.928179999999998,40.694178999999998,"304","34","39300","3032410037",BK78,Bushwick South,"32","32",COMMUNITY SCHOOL DISTRICT 32,"GORSKI, SHEILA",K274
23K275,K275,IS 275 Thelma J. Hamilton,332300010275,DOE,General Academic,Junior High-Intermediate-Middle,NULL,"8",1963/07/01 00:00:00.000,Closed,K275,985 ROCKAWAY AVENUE,"1009986","178313",-73.907399999999996,40.656599999999997,"316","42","92200","3036360007",BK81,Brownsville,"23","23",COMMUNITY SCHOOL DISTRICT 23,Donald Conyers,K275
18K276,K276,P.S. 276 Louis Marshall,331800010276,DOE,General Academic,Elementary,"PK,0K,01,02,03,04,05,SE","PK,0K,01,02,03,04,05",1964/07/01 00:00:00.000,Open,K276,1070 EAST  83 STREET,"1009664","170275",-73.908435999999995,40.634005000000002,"318","46","99600","3080340001",BK50,Canarsie,"18","18",COMMUNITY SCHOOL DISTRICT 18,"WILKINS, BEVERLY",K276
22K277,K277,P.S. 277 Gerritsen Beach,332200010277,DOE,General Academic,Elementary,"PK,0K,01,02,03,04,05,SE","PK,0K,01,02,03,04,05",1953/07/01 00:00:00.000,Open,K277,2529 GERRITSEN AVENUE,"1004287","156350",-73.927850000000007,40.595798000000002,"318","46","66600","3085900650",BK99,park-cemetery-etc-Brooklyn,"22","22",COMMUNITY SCHOOL DISTRICT 22,"BOVE, JULIA",K277
22K278,K278,J.H.S. 278 Marine Park,332200010278,DOE,General Academic,Junior High-Intermediate-Middle,"06,07,08,SE","06,07,08",1957/07/01 00:00:00.000,Open,K278,1925 STUART STREET,"1001265","160336",-73.938721000000001,40.606744999999997,"315","46","66600","3084960100",BK99,park-cemetery-etc-Brooklyn,"22","22",COMMUNITY SCHOOL DISTRICT 22,"BOVE, JULIA",K278
18K279,K279,P.S. 279 Herman Schreiber,331800010279,DOE,General Academic,Elementary,"PK,0K,01,02,03,04,05,SE","PK,0K,01,02,03,04,05",1959/07/01 00:00:00.000,Open,K279,1070 EAST 104 STREET,"1014000","173970",-73.892797000000002,40.644134000000001,"318","46","98600","3082300001",BK50,Canarsie,"18","18",COMMUNITY SCHOOL DISTRICT 18,"WILKINS, BEVERLY",K279
21K280,K280,IS 280 Brooklyn Studio School,332100010280,DOE,General Academic,Junior High-Intermediate-Middle,NULL,"06,07,08",1999/07/01 00:00:00.000,Closed,K721,8310 21ST AVENUE,"985804","159650",-73.994399999999999,40.604900000000001,"311","47","28800","3063290032",BK28,Bensonhurst West,"21","21",COMMUNITY SCHOOL DISTRICT 21,Richard D'Auria,K280
21K281,K281,I.S. 281 Joseph B Cavallaro,332100010281,DOE,General Academic,Junior High-Intermediate-Middle,"06,07,08,SE","06,07,08",1966/07/01 00:00:00.000,Open,K281,8787 24 AVENUE,"986037","155923",-73.993565000000004,40.594647999999999,"311","47","30400","3068910001",BK29,Bensonhurst East,"21","21",COMMUNITY SCHOOL DISTRICT 21,"DIMOLA, ISABEL",K281
13K282,K282,P.S. 282 Park Slope,331300010282,DOE,General Academic,K-8,"PK,0K,01,02,03,04,05,06,08,SE","PK,0K,01,02,03,04,05,06,07,08,SE",1962/07/01 00:00:00.000,Open,K282,180 6 AVENUE,"990357","185799",-73.977982999999995,40.676648999999998,"306","39","13100","3009500024",BK37,Park Slope-Gowanus,"13","13",COMMUNITY SCHOOL DISTRICT 13,"SAMUELS, KAMAR",K282
23K284,K284,"The Gregory Jocko Jackson School of Sports, Art, a",332300010284,DOE,General Academic,K-8,"PK,0K,01,02,03,04,05,SE","PK,0K,01,02,03,04,05,06,07,08",1906/07/01 00:00:00.000,Open,K284,213 OSBORN STREET,"1009874","182275",-73.907634000000002,40.666941999999999,"316","41","91200","3035440135",BK81,Brownsville,"23","23",COMMUNITY SCHOOL DISTRICT 23,"PATE, MIATHERESA",K284
18K285,K285,I.S. 285 Meyer Levin,331800010285,DOE,General Academic,Junior High-Intermediate-Middle,"06,07,08,SE","06,07,08",1954/07/01 00:00:00.000,Open,K285,5909 BEVERLY ROAD,"1006232","175304",-73.920783999999998,40.647818000000001,"317","45","93600","3047440001",BK96,Rugby-Remsen Village,"18","18",COMMUNITY SCHOOL DISTRICT 18,"WILKINS, BEVERLY",K285
18K285,K285,I.S. 285 Meyer Levin,331800010285,DOE,General Academic,Junior High-Intermediate-Middle,"06,07,08,SE","06,07,08",1954/07/01 00:00:00.000,Open,K285,5909 BEVERLY ROAD,"1006232","175304",-73.920783999999998,40.647818000000001,"317","45","93600","3047440001",BK96,Rugby-Remsen Village,"18","18",COMMUNITY SCHOOL DISTRICT 18,"WILKINS, BEVERLY",K285
13K287,K287,P.S. 287 Bailey K. Ashford,331300010287,DOE,General Academic,Elementary,"PK,0K,01,02,03,04,05,SE","PK,0K,01,02,03,04,05",1953/07/01 00:00:00.000,Open,K287,50 NAVY STREET,"989485","193525",-73.981120000000004,40.697856000000002,"302","35","2300","3001110001",BK38,DUMBO-Vinegar Hill-Downtown Brooklyn-Boerum Hill,"13","13",COMMUNITY SCHOOL DISTRICT 13,"SAMUELS, KAMAR",K287
21K288,K288,P.S. 288 The Shirley Tanyhill,332100010288,DOE,General Academic,K-8,"PK,0K,01,02,03,04,05,06,07,08,SE","PK,0K,01,02,03,04,05,06,07,08",1962/07/01 00:00:00.000,Open,K288,2950 WEST  25 STREET,"986363","148411",-73.992393000000007,40.574029000000003,"313","47","34200","3070540045",BK21,Seagate-Coney Island,"21","21",COMMUNITY SCHOOL DISTRICT 21,"DIMOLA, ISABEL",K288
17K289,K289,P.S. 289 George V. Brower,331700010289,DOE,General Academic,Elementary,"PK,0K,01,02,03,04,05,SE","PK,0K,01,02,03,04,05",1959/07/01 00:00:00.000,Open,K289,900 ST MARKS AVENUE,"1000227","184927",-73.942401000000004,40.674244000000002,"308","36","34100","3012290028",BK61,Crown Heights North,"17","17",COMMUNITY SCHOOL DISTRICT 17,"ELLIS, CLARENCE",K289
19K290,K290,P.S. 290 Juan Morel Campos,331900010290,DOE,General Academic,Elementary,"PK,0K,01,02,03,04,05,SE","0K,01,02,03,04,05",1979/07/01 00:00:00.000,Open,K290,135 SCHENCK AVENUE,"1014934","186376",-73.889375000000001,40.678182000000000,"305","37","119800","3039490018",BK82,East New York,"19","19",COMMUNITY SCHOOL DISTRICT 19,THOMAS MCBRYDE JR,K290
32K291,K291,J.H.S. 291 Roland Hayes,333200010291,DOE,General Academic,Junior High-Intermediate-Middle,"06,07,08,SE","06,07,08",1975/07/01 00:00:00.000,Open,K291,231 PALMETTO STREET,"1007760","192814",-73.915216999999998,40.695875000000001,"304","37","43300","3033430001",BK77,Bushwick North,"32","32",COMMUNITY SCHOOL DISTRICT 32,"GORSKI, SHEILA",K291
19K292,K292,J.H.S. 292 Margaret S. Douglas,331900010292,DOE,General Academic,Junior High-Intermediate-Middle,"06,07,08,SE","06,07,08",1967/07/01 00:00:00.000,Open,K292,301 VERMONT STREET,"1013843","183977",-73.893319000000005,40.671601000000003,"305","42","114400","3037400001",BK85,East New York (Pennsylvania Ave),"19","19",COMMUNITY SCHOOL DISTRICT 19,THOMAS MCBRYDE JR,K292
19K292,K292,J.H.S. 292 Margaret S. Douglas,331900010292,DOE,General Academic,Junior High-Intermediate-Middle,"06,07,08,SE","06,07,08",1967/07/01 00:00:00.000,Open,K292,301 VERMONT STREET,"1013843","183977",-73.893319000000005,40.671601000000003,"305","42","114400","3037400001",BK85,East New York (Pennsylvania Ave),"19","19",COMMUNITY SCHOOL DISTRICT 19,THOMAS MCBRYDE JR,K292
15K295,K295,P.S. 295,331500010295,DOE,General Academic,Elementary,"PK,0K,01,02,03,04,05,06,SE","PK,0K,01,02,03,04,05",1996/10/04 00:00:00.000,Open,K845,330 18 STREET,"987373","180026",-73.988742999999999,40.660805000000003,"307","38","14700","3008800001",BK32,Sunset Park West,"15","15",COMMUNITY SCHOOL DISTRICT 15,"SKOP, ANITA",K295
